{"type": "FeatureCollection", "features": [{"type": "Feature", "geometry": {"type": "Point", "coordinates": [4.3362489, 50.8356704]}, "properties": {"name": "Bruxelles-Midi - Brussel-Zuid", "railway": "station", "public_transport": "station", "iata": "ZYR", "osm_type": "node", "osm_id": "17401552"}}, {"type": "Feature", "geometry": {"type": "Point", "coordinates": [5.0516776, 51.5652341]}, "properties": {"name": "Tilburg Universiteit", "railway": "station", "public_transport": "station", "osm_type": "node", "osm_id": "43044523"}}, {"type": "Feature", "geometry": {"type": "Point", "coordinates": [4.9242259, 51.5840224]}, "properties": {"name": "Gilze-Rijen", "railway": "station", "public_transport": "station", "osm_type": "node", "osm_id": "43124982"}}, {"type": "Feature", "geometry": {"type": "Point", "coordinates": [4.6453582, 52.2588593]}, "properties": {"name": "Nieuw Vennep", "railway": "station", "public_transport": "station", "osm_type": "node", "osm_id": "45920072"}}, {"type": "Feature", "geometry": {"type": "Point", "coordinates": [4.7620721, 52.3095969]}, "properties": {"name": "Schiphol Airport", "railway": "station", "public_transport": "station", "osm_type": "node", "osm_id": "46122858"}}, {"type": "Feature", "geometry": {"type": "Point", "coordinates": [4.9560598, 52.3302613]}, "properties": {"name": "Diemen Zuid", "railway": "station", "public_transport": "station", "osm_type": "node", "osm_id": "46199966"}}, {"type": "Feature", "geometry": {"type": "Point", "coordinates": [5.2447045, 52.376736]}, "properties": {"name": "Almere Parkwijk", "railway": "station", "public_transport": "station", "osm_type": "node", "osm_id": "46410951"}}, {"type": "Feature", "geometry": {"type": "Point", "coordinates": [5.2779576, 52.3941912]}, "properties": {"name": "Almere Buiten", "railway": "station", "public_transport": "station", "osm_type": "node", "osm_id": "46487439"}}, {"type": "Feature", "geometry": {"type": "Point", "coordinates": [5.4727185, 52.5079328]}, "properties": {"name": "Lelystad Centrum", "railway": "station", "public_transport": "station", "osm_type": "node", "osm_id": "46792197"}}, {"type": "Feature", "geometry": {"type": "Point", "coordinates": [5.4736637, 52.5070362]}, "properties": {"name": "Station Centrum", "amenity": "bus_station", "public_transport": "station", "osm_type": "node", "osm_id": "54072803"}}, {"type": "Feature", "geometry": {"type": "Point", "coordinates": [4.3614901, 50.8601446]}, "properties": {"name": "Bruxelles-Nord - Brussel-Noord", "railway": "station", "public_transport": "station", "osm_type": "node", "osm_id": "66180313"}}, {"type": "Feature", "geometry": {"type": "Point", "coordinates": [4.4016642, 50.8337292]}, "properties": {"name": "Thieffry", "railway": "station", "public_transport": "station", "osm_type": "node", "osm_id": "81350000"}}, {"type": "Feature", "geometry": {"type": "Point", "coordinates": [4.4041965, 50.8185429]}, "properties": {"name": "Delta", "railway": "station", "public_transport": "station", "osm_type": "node", "osm_id": "142615041"}}, {"type": "Feature", "geometry": {"type": "Point", "coordinates": [4.4054332, 50.8212957]}, "properties": {"name": "Hankar", "railway": "station", "public_transport": "station", "osm_type": "node", "osm_id": "142615058"}}, {"type": "Feature", "geometry": {"type": "Point", "coordinates": [4.4038813, 50.8277223]}, "properties": {"name": "Pétillon", "railway": "station", "public_transport": "station", "osm_type": "node", "osm_id": "142632025"}}, {"type": "Feature", "geometry": {"type": "Point", "coordinates": [4.3979237, 50.8394624]}, "properties": {"name": "Merode", "railway": "station", "public_transport": "station", "osm_type": "node", "osm_id": "142687752"}}, {"type": "Feature", "geometry": {"type": "Point", "coordinates": [4.3818382, 50.8428062]}, "properties": {"name": "Schuman", "railway": "station", "public_transport": "station", "osm_type": "node", "osm_id": "142700510"}}, {"type": "Feature", "geometry": {"type": "Point", "coordinates": [4.36877, 50.8455451]}, "properties": {"name": "Arts-Loi - Kunst-Wet", "railway": "station", "public_transport": "station", "osm_type": "node", "osm_id": "142700511"}}, {"type": "Feature", "geometry": {"type": "Point", "coordinates": [4.3586397, 50.8465485]}, "properties": {"name": "Gare Centrale - Centraal Station", "railway": "station", "public_transport": "station", "osm_type": "node", "osm_id": "142700522"}}, {"type": "Feature", "geometry": {"type": "Point", "coordinates": [4.3523796, 50.8499233]}, "properties": {"name": "De Brouckère", "railway": "station", "public_transport": "station", "osm_type": "node", "osm_id": "142719362"}}, {"type": "Feature", "geometry": {"type": "Point", "coordinates": [4.3478425, 50.8521404]}, "properties": {"name": "Sainte-Catherine - Sint-Katelijne", "railway": "station", "public_transport": "station", "osm_type": "node", "osm_id": "142719368"}}, {"type": "Feature", "geometry": {"type": "Point", "coordinates": [4.3487828, 50.833342]}, "properties": {"name": "Hôtel des Monnaies - Munthof", "railway": "station", "public_transport": "station", "osm_type": "node", "osm_id": "142758829"}}, {"type": "Feature", "geometry": {"type": "Point", "coordinates": [4.3546677, 50.8353919]}, "properties": {"name": "Louise - Louiza", "railway": "station", "public_transport": "station", "osm_type": "node", "osm_id": "142758831"}}, {"type": "Feature", "geometry": {"type": "Point", "coordinates": [4.3616931, 50.8382614]}, "properties": {"name": "Porte de Namur - Naamsepoort", "railway": "station", "public_transport": "station", "osm_type": "node", "osm_id": "142758834"}}, {"type": "Feature", "geometry": {"type": "Point", "coordinates": [4.365713, 50.8539544]}, "properties": {"name": "Botanique - Kruidtuin", "railway": "station", "public_transport": "station", "osm_type": "node", "osm_id": "142758875"}}, {"type": "Feature", "geometry": {"type": "Point", "coordinates": [4.3691066, 50.8499675]}, "properties": {"name": "Madou", "railway": "station", "public_transport": "station", "osm_type": "node", "osm_id": "142758879"}}, {"type": "Feature", "geometry": {"type": "Point", "coordinates": [4.3665164, 50.841247]}, "properties": {"name": "Trône - Troon", "railway": "station", "public_transport": "station", "osm_type": "node", "osm_id": "142758883"}}, {"type": "Feature", "geometry": {"type": "Point", "coordinates": [4.4096433, 50.815096]}, "properties": {"name": "Beaulieu", "railway": "station", "public_transport": "station", "osm_type": "node", "osm_id": "143687763"}}, {"type": "Feature", "geometry": {"type": "Point", "coordinates": [4.4209192, 50.8135301]}, "properties": {"name": "Demey", "railway": "station", "public_transport": "station", "osm_type": "node", "osm_id": "143687850"}}, {"type": "Feature", "geometry": {"type": "Point", "coordinates": [4.3513146, 50.8573007]}, "properties": {"name": "Yser - IJzer", "railway": "station", "public_transport": "station", "osm_type": "node", "osm_id": "143701411"}}, {"type": "Feature", "geometry": {"type": "Point", "coordinates": [4.325184, 50.8569002]}, "properties": {"name": "Osseghem - Ossegem", "railway": "station", "public_transport": "station", "osm_type": "node", "osm_id": "143710104"}}, {"type": "Feature", "geometry": {"type": "Point", "coordinates": [4.3229722, 50.8534442]}, "properties": {"name": "Beekkant", "railway": "station", "public_transport": "station", "osm_type": "node", "osm_id": "143725254"}}, {"type": "Feature", "geometry": {"type": "Point", "coordinates": [4.3206513, 50.8485097]}, "properties": {"name": "Gare de l'Ouest - Weststation", "railway": "station", "public_transport": "station", "osm_type": "node", "osm_id": "143725278"}}, {"type": "Feature", "geometry": {"type": "Point", "coordinates": [4.3308225, 50.8411736]}, "properties": {"name": "Clemenceau", "railway": "station", "public_transport": "station", "osm_type": "node", "osm_id": "143736457"}}, {"type": "Feature", "geometry": {"type": "Point", "coordinates": [4.3242362, 50.8452755]}, "properties": {"name": "Delacroix", "railway": "station", "public_transport": "station", "osm_type": "node", "osm_id": "143736481"}}, {"type": "Feature", "geometry": {"type": "Point", "coordinates": [4.3396697, 50.8604772]}, "properties": {"name": "Ribaucourt", "railway": "station", "public_transport": "station", "osm_type": "node", "osm_id": "143744297"}}, {"type": "Feature", "geometry": {"type": "Point", "coordinates": [4.3402537, 50.8548502]}, "properties": {"name": "Comte de Flandre - Graaf van Vlaanderen", "railway": "station", "public_transport": "station", "osm_type": "node", "osm_id": "144002963"}}, {"type": "Feature", "geometry": {"type": "Point", "coordinates": [4.3321841, 50.8570847]}, "properties": {"name": "Étangs Noirs - Zwarte Vijvers", "railway": "station", "public_transport": "station", "osm_type": "node", "osm_id": "144050557"}}, {"type": "Feature", "geometry": {"type": "Point", "coordinates": [4.3180457, 50.843756]}, "properties": {"name": "Jacques Brel", "railway": "station", "public_transport": "station", "osm_type": "node", "osm_id": "144070376"}}, {"type": "Feature", "geometry": {"type": "Point", "coordinates": [4.3124915, 50.8396805]}, "properties": {"name": "Aumale", "railway": "station", "public_transport": "station", "osm_type": "node", "osm_id": "144070383"}}, {"type": "Feature", "geometry": {"type": "Point", "coordinates": [4.305343, 50.8349886]}, "properties": {"name": "Saint-Guidon - Sint-Guido", "railway": "station", "public_transport": "station", "osm_type": "node", "osm_id": "144070391"}}, {"type": "Feature", "geometry": {"type": "Point", "coordinates": [4.3006508, 50.8294786]}, "properties": {"name": "Veeweyde - Veeweide", "railway": "station", "public_transport": "station", "osm_type": "node", "osm_id": "144070405"}}, {"type": "Feature", "geometry": {"type": "Point", "coordinates": [4.2970381, 50.8249137]}, "properties": {"name": "Bizet", "railway": "station", "public_transport": "station", "osm_type": "node", "osm_id": "144074167"}}, {"type": "Feature", "geometry": {"type": "Point", "coordinates": [4.2939154, 50.8211173]}, "properties": {"name": "La Roue - Het Rad", "railway": "station", "public_transport": "station", "osm_type": "node", "osm_id": "144075758"}}, {"type": "Feature", "geometry": {"type": "Point", "coordinates": [4.2896221, 50.8162986]}, "properties": {"name": "CERIA - COOVI", "railway": "station", "public_transport": "station", "osm_type": "node", "osm_id": "144085375"}}, {"type": "Feature", "geometry": {"type": "Point", "coordinates": [4.2807419, 50.8167015]}, "properties": {"name": "Eddy Merckx", "railway": "station", "public_transport": "station", "osm_type": "node", "osm_id": "144095140"}}, {"type": "Feature", "geometry": {"type": "Point", "coordinates": [4.267078, 50.8152348]}, "properties": {"name": "Erasme - Erasmus", "railway": "station", "public_transport": "station", "osm_type": "node", "osm_id": "144100088"}}, {"type": "Feature", "geometry": {"type": "Point", "coordinates": [4.3368135, 50.8684247]}, "properties": {"name": "Belgica", "railway": "station", "public_transport": "station", "osm_type": "node", "osm_id": "144247325"}}, {"type": "Feature", "geometry": {"type": "Point", "coordinates": [4.3419624, 50.886095]}, "properties": {"name": "Stuyvenbergh", "railway": "station", "public_transport": "station", "osm_type": "node", "osm_id": "144271265"}}, {"type": "Feature", "geometry": {"type": "Point", "coordinates": [4.3377665, 50.8894885]}, "properties": {"name": "Houba-Brugmann", "railway": "station", "public_transport": "station", "osm_type": "node", "osm_id": "144271273"}}, {"type": "Feature", "geometry": {"type": "Point", "coordinates": [4.3359769, 50.8968737]}, "properties": {"name": "Heysel - Heizel", "railway": "station", "public_transport": "station", "osm_type": "node", "osm_id": "144276150"}}, {"type": "Feature", "geometry": {"type": "Point", "coordinates": [4.327778, 50.8963504]}, "properties": {"name": "Roi Baudouin - Koning Boudewijn", "railway": "station", "public_transport": "station", "osm_type": "node", "osm_id": "144283201"}}, {"type": "Feature", "geometry": {"type": "Point", "coordinates": [4.3600896, 50.8603818]}, "properties": {"name": "Gare du Nord - Noordstation", "railway": "station", "public_transport": "station", "osm_type": "node", "osm_id": "145016898"}}, {"type": "Feature", "geometry": {"type": "Point", "coordinates": [4.3769687, 50.8438339]}, "properties": {"name": "Maelbeek - Maalbeek", "railway": "station", "public_transport": "station", "osm_type": "node", "osm_id": "145980763"}}, {"type": "Feature", "geometry": {"type": "Point", "coordinates": [4.4286923, 50.8122156]}, "properties": {"name": "Herrmann-Debroux", "railway": "station", "public_transport": "station", "osm_type": "node", "osm_id": "147132819"}}, {"type": "Feature", "geometry": {"type": "Point", "coordinates": [4.8575769, 52.3384028]}, "properties": {"name": "Amstelveenseweg", "railway": "station", "public_transport": "station", "osm_type": "node", "osm_id": "250222266"}}, {"type": "Feature", "geometry": {"type": "Point", "coordinates": [4.8352937, 52.3726582]}, "properties": {"name": "Jan van Galenstraat", "railway": "station", "public_transport": "station", "osm_type": "node", "osm_id": "250224485"}}, {"type": "Feature", "geometry": {"type": "Point", "coordinates": [4.9601712, 52.2979886]}, "properties": {"name": "Amsterdam Holendrecht", "railway": "station", "public_transport": "station", "osm_type": "node", "osm_id": "250233810"}}, {"type": "Feature", "geometry": {"type": "Point", "coordinates": [4.4136974, 50.8402731]}, "properties": {"name": "Joséphine-Charlotte", "railway": "station", "public_transport": "station", "osm_type": "node", "osm_id": "250308215"}}, {"type": "Feature", "geometry": {"type": "Point", "coordinates": [4.4184758, 50.8424865]}, "properties": {"name": "Gribaumont", "railway": "station", "public_transport": "station", "osm_type": "node", "osm_id": "250308844"}}, {"type": "Feature", "geometry": {"type": "Point", "coordinates": [4.4257772, 50.8442261]}, "properties": {"name": "Tomberg", "railway": "station", "public_transport": "station", "osm_type": "node", "osm_id": "250309308"}}, {"type": "Feature", "geometry": {"type": "Point", "coordinates": [4.4357016, 50.8474846]}, "properties": {"name": "Roodebeek", "railway": "station", "public_transport": "station", "osm_type": "node", "osm_id": "250309558"}}, {"type": "Feature", "geometry": {"type": "Point", "coordinates": [4.4470948, 50.8474288]}, "properties": {"name": "Vandervelde", "railway": "station", "public_transport": "station", "osm_type": "node", "osm_id": "250310420"}}, {"type": "Feature", "geometry": {"type": "Point", "coordinates": [4.4585462, 50.8489121]}, "properties": {"name": "Crainhem - Kraainem", "railway": "station", "public_transport": "station", "osm_type": "node", "osm_id": "250310431"}}, {"type": "Feature", "geometry": {"type": "Point", "coordinates": [4.4641152, 50.8420671]}, "properties": {"name": "Stockel - Stokkel", "railway": "station", "public_transport": "station", "osm_type": "node", "osm_id": "250312071"}}, {"type": "Feature", "geometry": {"type": "Point", "coordinates": [4.483742, 51.0177129]}, "properties": {"name": "Mechelen", "railway": "station", "public_transport": "station", "osm_type": "node", "osm_id": "256563112"}}, {"type": "Feature", "geometry": {"type": "Point", "coordinates": [4.347972, 50.8788488]}, "properties": {"name": "Bockstael", "railway": "station", "public_transport": "station", "osm_type": "node", "osm_id": "287288229"}}, {"type": "Feature", "geometry": {"type": "Point", "coordinates": [4.9305189, 52.3294483]}, "properties": {"name": "Van der Madeweg", "railway": "station", "public_transport": "station", "osm_type": "node", "osm_id": "289445435"}}, {"type": "Feature", "geometry": {"type": "Point", "coordinates": [4.3309785, 50.863048]}, "properties": {"name": "Elisabeth", "railway": "station", "public_transport": "station", "osm_type": "node", "osm_id": "345771178"}}, {"type": "Feature", "geometry": {"type": "Point", "coordinates": [4.4211011, 51.2159949]}, "properties": {"name": "Antwerpen-Centraal", "railway": "station", "public_transport": "station", "iata": "ZWE", "osm_type": "node", "osm_id": "348421822"}}, {"type": "Feature", "geometry": {"type": "Point", "coordinates": [4.3909634, 51.1975124]}, "properties": {"name": "Antwerpen-Zuid", "railway": "station", "public_transport": "station", "osm_type": "node", "osm_id": "351590239"}}, {"type": "Feature", "geometry": {"type": "Point", "coordinates": [4.9006943, 52.3797411]}, "properties": {"name": "CS IJzijde", "amenity": "bus_station", "public_transport": "station", "osm_type": "node", "osm_id": "362617479"}}, {"type": "Feature", "geometry": {"type": "Point", "coordinates": [4.9176266, 52.3317318]}, "properties": {"name": "Overamstel", "railway": "station", "public_transport": "station", "osm_type": "node", "osm_id": "427565080"}}, {"type": "Feature", "geometry": {"type": "Point", "coordinates": [4.6135917, 50.966177]}, "properties": {"name": "Haacht", "railway": "station", "public_transport": "station", "osm_type": "node", "osm_id": "525922925"}}, {"type": "Feature", "geometry": {"type": "Point", "coordinates": [5.3006021, 52.4032804]}, "properties": {"name": "Almere Oostvaarders", "railway": "station", "public_transport": "station", "osm_type": "node", "osm_id": "563874508"}}, {"type": "Feature", "geometry": {"type": "Point", "coordinates": [5.1643046, 51.361624]}, "properties": {"name": "Busstation Reusel", "amenity": "bus_station", "public_transport": "station", "osm_type": "node", "osm_id": "617837268"}}, {"type": "Feature", "geometry": {"type": "Point", "coordinates": [4.6387127, 50.9580659]}, "properties": {"name": "Wespelaar-Tildonk", "railway": "station", "public_transport": "station", "osm_type": "node", "osm_id": "631428707"}}, {"type": "Feature", "geometry": {"type": "Point", "coordinates": [4.9622329, 51.394791]}, "properties": {"name": "Vliegveld Weelde", "aeroway": "aerodrome", "icao": "EBWE", "osm_type": "node", "osm_id": "635071010"}}, {"type": "Feature", "geometry": {"type": "Point", "coordinates": [5.7215719, 52.5343316]}, "properties": {"name": "Dronten", "railway": "station", "public_transport": "station", "osm_type": "node", "osm_id": "635300176"}}, {"type": "Feature", "geometry": {"type": "Point", "coordinates": [5.3012657, 52.4026545]}, "properties": {"name": "Station Oostvaarders", "amenity": "bus_station", "public_transport": "station", "osm_type": "node", "osm_id": "695213817"}}, {"type": "Feature", "geometry": {"type": "Point", "coordinates": [4.6544178, 52.3249199]}, "properties": {"name": "Spaarne Gasthuis", "amenity": "bus_station", "public_transport": "station", "osm_type": "node", "osm_id": "724099312"}}, {"type": "Feature", "geometry": {"type": "Point", "coordinates": [4.9853085, 52.3109295]}, "properties": {"name": "Gaasperplasstation", "amenity": "bus_station", "public_transport": "station", "osm_type": "node", "osm_id": "729547465"}}, {"type": "Feature", "geometry": {"type": "Point", "coordinates": [5.548863, 51.6832098]}, "properties": {"name": "Vliegveld Nistelrode", "aeroway": "aerodrome", "osm_type": "node", "osm_id": "1213225171"}}, {"type": "Feature", "geometry": {"type": "Point", "coordinates": [4.7468736, 52.3859763]}, "properties": {"name": "Halfweg-Zwanenburg", "railway": "station", "public_transport": "station", "osm_type": "node", "osm_id": "1633149045"}}, {"type": "Feature", "geometry": {"type": "Point", "coordinates": [4.8211487, 52.2429948]}, "properties": {"name": "Busstation", "amenity": "bus_station", "public_transport": "station", "osm_type": "node", "osm_id": "1903051105"}}, {"type": "Feature", "geometry": {"type": "Point", "coordinates": [4.330489, 50.8631917]}, "properties": {"name": "Simonis", "railway": "station", "public_transport": "station", "osm_type": "node", "osm_id": "2101668768"}}, {"type": "Feature", "geometry": {"type": "Point", "coordinates": [5.1522517, 52.3429466]}, "properties": {"name": "Almere Poort", "railway": "station", "public_transport": "station", "osm_type": "node", "osm_id": "2132785146"}}, {"type": "Feature", "geometry": {"type": "Point", "coordinates": [4.4001989, 50.8085128]}, "properties": {"name": "Watermael - Watermaal", "railway": "station", "public_transport": "station", "osm_type": "node", "osm_id": "2194362683"}}, {"type": "Feature", "geometry": {"type": "Point", "coordinates": [4.8382223, 52.3796134]}, "properties": {"name": "De Vlugtlaan", "railway": "station", "public_transport": "station", "osm_type": "node", "osm_id": "2237721918"}}, {"type": "Feature", "geometry": {"type": "Point", "coordinates": [4.9934935, 51.573665]}, "properties": {"name": "Tilburg Reeshof", "railway": "station", "public_transport": "station", "osm_type": "node", "osm_id": "2336169715"}}, {"type": "Feature", "geometry": {"type": "Point", "coordinates": [4.4528546, 50.8496906]}, "properties": {"name": "Alma", "railway": "station", "public_transport": "station", "osm_type": "node", "osm_id": "2368465586"}}, {"type": "Feature", "geometry": {"type": "Point", "coordinates": [4.6268015, 52.5387469]}, "properties": {"name": "Eerste Zaanse Zweefvlieg Club", "aeroway": "aerodrome", "osm_type": "node", "osm_id": "2812253886"}}, {"type": "Feature", "geometry": {"type": "Point", "coordinates": [5.6199961, 52.3377999]}, "properties": {"name": "Harderwijk", "railway": "station", "public_transport": "station", "osm_type": "node", "osm_id": "2854696578"}}, {"type": "Feature", "geometry": {"type": "Point", "coordinates": [5.6144134, 52.3011045]}, "properties": {"name": "Ermelo", "railway": "station", "public_transport": "station", "osm_type": "node", "osm_id": "2891601965"}}, {"type": "Feature", "geometry": {"type": "Point", "coordinates": [4.3569867, 50.8454639]}, "properties": {"name": "Bruxelles-Central - Brussel-Centraal", "railway": "station", "public_transport": "station", "osm_type": "node", "osm_id": "3266203405"}}, {"type": "Feature", "geometry": {"type": "Point", "coordinates": [4.7093829, 51.0735151]}, "properties": {"name": "Heist-op-den-Berg", "railway": "station", "public_transport": "station", "osm_type": "node", "osm_id": "3392485194"}}, {"type": "Feature", "geometry": {"type": "Point", "coordinates": [4.3784579, 50.878395]}, "properties": {"name": "Schaerbeek - Schaarbeek", "railway": "station", "public_transport": "station", "osm_type": "node", "osm_id": "3833189777"}}, {"type": "Feature", "geometry": {"type": "Point", "coordinates": [4.3736537, 50.8381995]}, "properties": {"name": "Bruxelles-Luxembourg - Brussel-Luxemburg", "railway": "station", "public_transport": "station", "osm_type": "node", "osm_id": "3887847332"}}, {"type": "Feature", "geometry": {"type": "Point", "coordinates": [4.8381062, 52.3890317]}, "properties": {"name": "Amsterdam Sloterdijk", "railway": "station", "public_transport": "station", "osm_type": "node", "osm_id": "3938547498"}}, {"type": "Feature", "geometry": {"type": "Point", "coordinates": [4.9470883, 52.3122449]}, "properties": {"name": "Amsterdam Bijlmer ArenA", "railway": "station", "public_transport": "station", "osm_type": "node", "osm_id": "4005961975"}}, {"type": "Feature", "geometry": {"type": "Point", "coordinates": [4.9175567, 52.3464656]}, "properties": {"name": "Amsterdam Amstel", "railway": "station", "public_transport": "station", "osm_type": "node", "osm_id": "4040491812"}}, {"type": "Feature", "geometry": {"type": "Point", "coordinates": [5.0837958, 51.5606465]}, "properties": {"name": "Tilburg", "railway": "station", "public_transport": "station", "osm_type": "node", "osm_id": "4041466061"}}, {"type": "Feature", "geometry": {"type": "Point", "coordinates": [5.4570165, 51.4503696]}, "properties": {"name": "Eindhoven Strijp-S", "railway": "station", "public_transport": "station", "osm_type": "node", "osm_id": "4041503843"}}, {"type": "Feature", "geometry": {"type": "Point", "coordinates": [5.3190301, 51.5844429]}, "properties": {"name": "Boxtel", "railway": "station", "public_transport": "station", "osm_type": "node", "osm_id": "4041505713"}}, {"type": "Feature", "geometry": {"type": "Point", "coordinates": [4.9890129, 52.296338]}, "properties": {"name": "Gein", "railway": "station", "public_transport": "station", "osm_type": "node", "osm_id": "4041640589"}}, {"type": "Feature", "geometry": {"type": "Point", "coordinates": [4.9744218, 52.2956478]}, "properties": {"name": "Reigersbos", "railway": "station", "public_transport": "station", "osm_type": "node", "osm_id": "4041640590"}}, {"type": "Feature", "geometry": {"type": "Point", "coordinates": [4.9843223, 52.3113175]}, "properties": {"name": "Gaasperplas", "railway": "station", "public_transport": "station", "osm_type": "node", "osm_id": "4041642874"}}, {"type": "Feature", "geometry": {"type": "Point", "coordinates": [4.9735502, 52.3230792]}, "properties": {"name": "Ganzenhoef", "railway": "station", "public_transport": "station", "osm_type": "node", "osm_id": "4041662264"}}, {"type": "Feature", "geometry": {"type": "Point", "coordinates": [4.9791233, 52.3170313]}, "properties": {"name": "Kraaiennest", "railway": "station", "public_transport": "station", "osm_type": "node", "osm_id": "4041662265"}}, {"type": "Feature", "geometry": {"type": "Point", "coordinates": [4.9463398, 52.3267669]}, "properties": {"name": "Venserpolder", "railway": "station", "public_transport": "station", "osm_type": "node", "osm_id": "4041664287"}}, {"type": "Feature", "geometry": {"type": "Point", "coordinates": [4.9365267, 52.3235787]}, "properties": {"name": "Duivendrecht", "railway": "station", "public_transport": "station", "osm_type": "node", "osm_id": "4041666291"}}, {"type": "Feature", "geometry": {"type": "Point", "coordinates": [4.8902289, 52.3370349]}, "properties": {"name": "Amsterdam RAI", "railway": "station", "public_transport": "station", "osm_type": "node", "osm_id": "4046323545"}}, {"type": "Feature", "geometry": {"type": "Point", "coordinates": [4.9413557, 52.3185355]}, "properties": {"name": "Strandvliet", "railway": "station", "public_transport": "station", "osm_type": "node", "osm_id": "4046383465"}}, {"type": "Feature", "geometry": {"type": "Point", "coordinates": [4.9522364, 52.3066107]}, "properties": {"name": "Bullewijk", "railway": "station", "public_transport": "station", "osm_type": "node", "osm_id": "4046388677"}}, {"type": "Feature", "geometry": {"type": "Point", "coordinates": [4.8343026, 52.3524713]}, "properties": {"name": "Heemstedestraat", "railway": "station", "public_transport": "station", "osm_type": "node", "osm_id": "4053335995"}}, {"type": "Feature", "geometry": {"type": "Point", "coordinates": [4.9662522, 52.328939]}, "properties": {"name": "Verrijn Stuartweg", "railway": "station", "public_transport": "station", "osm_type": "node", "osm_id": "4064153245"}}, {"type": "Feature", "geometry": {"type": "Point", "coordinates": [4.9210115, 52.3399595]}, "properties": {"name": "Spaklerweg", "railway": "station", "public_transport": "station", "osm_type": "node", "osm_id": "4073693626"}}, {"type": "Feature", "geometry": {"type": "Point", "coordinates": [4.9120253, 52.3544624]}, "properties": {"name": "Wibautstraat", "railway": "station", "public_transport": "station", "osm_type": "node", "osm_id": "4073693628"}}, {"type": "Feature", "geometry": {"type": "Point", "coordinates": [4.9008788, 52.3713176]}, "properties": {"name": "Nieuwmarkt", "railway": "station", "public_transport": "station", "osm_type": "node", "osm_id": "4073743506"}}, {"type": "Feature", "geometry": {"type": "Point", "coordinates": [4.8345025, 52.3464029]}, "properties": {"name": "Henk Sneevlietweg", "railway": "station", "public_transport": "station", "osm_type": "node", "osm_id": "4075987791"}}, {"type": "Feature", "geometry": {"type": "Point", "coordinates": [4.8340268, 52.3578369]}, "properties": {"name": "Amsterdam Lelylaan", "railway": "station", "public_transport": "station", "osm_type": "node", "osm_id": "4076017504"}}, {"type": "Feature", "geometry": {"type": "Point", "coordinates": [4.8507911, 52.3951713]}, "properties": {"name": "Isolatorweg", "railway": "station", "public_transport": "station", "osm_type": "node", "osm_id": "4077313759"}}, {"type": "Feature", "geometry": {"type": "Point", "coordinates": [4.8339612, 52.3642921]}, "properties": {"name": "Postjesweg", "railway": "station", "public_transport": "station", "osm_type": "node", "osm_id": "4077313763"}}, {"type": "Feature", "geometry": {"type": "Point", "coordinates": [5.2937086, 51.6905164]}, "properties": {"name": "'s-Hertogenbosch", "railway": "station", "public_transport": "station", "osm_type": "node", "osm_id": "4085675596"}}, {"type": "Feature", "geometry": {"type": "Point", "coordinates": [4.6591148, 52.5453379]}, "properties": {"name": "Castricum", "railway": "station", "public_transport": "station", "osm_type": "node", "osm_id": "4085675599"}}, {"type": "Feature", "geometry": {"type": "Point", "coordinates": [4.8137421, 52.4382493]}, "properties": {"name": "Zaandam", "railway": "station", "public_transport": "station", "osm_type": "node", "osm_id": "4085675604"}}, {"type": "Feature", "geometry": {"type": "Point", "coordinates": [4.9773816, 52.2785602]}, "properties": {"name": "Abcoude", "railway": "station", "public_transport": "station", "osm_type": "node", "osm_id": "4144568336"}}, {"type": "Feature", "geometry": {"type": "Point", "coordinates": [4.8051566, 52.4692791]}, "properties": {"name": "Zaandijk Zaanse Schans", "railway": "station", "public_transport": "station", "osm_type": "node", "osm_id": "4185358281"}}, {"type": "Feature", "geometry": {"type": "Point", "coordinates": [4.7552412, 52.4950503]}, "properties": {"name": "Krommenie-Assendelft", "railway": "station", "public_transport": "station", "osm_type": "node", "osm_id": "4185358282"}}, {"type": "Feature", "geometry": {"type": "Point", "coordinates": [4.7936282, 52.4892769]}, "properties": {"name": "Wormerveer", "railway": "station", "public_transport": "station", "osm_type": "node", "osm_id": "4185358283"}}, {"type": "Feature", "geometry": {"type": "Point", "coordinates": [4.8934698, 52.4181287]}, "properties": {"name": "Molenwijk", "amenity": "bus_station", "public_transport": "station", "osm_type": "node", "osm_id": "4277705209"}}, {"type": "Feature", "geometry": {"type": "Point", "coordinates": [4.9005805, 52.378901]}, "properties": {"name": "Amsterdam Centraal", "railway": "station", "public_transport": "station", "osm_type": "node", "osm_id": "4290854847"}}, {"type": "Feature", "geometry": {"type": "Point", "coordinates": [4.6988698, 52.2928668]}, "properties": {"name": "Hoofddorp", "railway": "station", "public_transport": "station", "osm_type": "node", "osm_id": "4519026692"}}, {"type": "Feature", "geometry": {"type": "Point", "coordinates": [5.2193265, 52.3752735]}, "properties": {"name": "Almere Centrum", "railway": "station", "public_transport": "station", "osm_type": "node", "osm_id": "4555468696"}}, {"type": "Feature", "geometry": {"type": "Point", "coordinates": [4.3622545, 50.8456068]}, "properties": {"name": "Parc - Park", "railway": "station", "public_transport": "station", "osm_type": "node", "osm_id": "4618293165"}}, {"type": "Feature", "geometry": {"type": "Point", "coordinates": [4.4351343, 51.2907893]}, "properties": {"name": "Sint-Mariaburg", "railway": "station", "public_transport": "station", "osm_type": "node", "osm_id": "4623345362"}}, {"type": "Feature", "geometry": {"type": "Point", "coordinates": [4.434336, 51.2817684]}, "properties": {"name": "Ekeren", "railway": "station", "public_transport": "station", "osm_type": "node", "osm_id": "4623345562"}}, {"type": "Feature", "geometry": {"type": "Point", "coordinates": [4.4075685, 50.837836]}, "properties": {"name": "Montgomery", "railway": "station", "public_transport": "station", "osm_type": "node", "osm_id": "4687124672"}}, {"type": "Feature", "geometry": {"type": "Point", "coordinates": [4.3580819, 50.8555685]}, "properties": {"name": "Rogier", "railway": "station", "public_transport": "station", "osm_type": "node", "osm_id": "4772610929"}}, {"type": "Feature", "geometry": {"type": "Point", "coordinates": [4.337896, 50.8364862]}, "properties": {"name": "Gare du Midi - Zuidstation", "railway": "station", "public_transport": "station", "osm_type": "node", "osm_id": "4878787366"}}, {"type": "Feature", "geometry": {"type": "Point", "coordinates": [4.3428824, 50.8339923]}, "properties": {"name": "Porte de Hal - Hallepoort", "railway": "station", "public_transport": "station", "osm_type": "node", "osm_id": "4892514008"}}, {"type": "Feature", "geometry": {"type": "Point", "coordinates": [4.3429602, 50.8735372]}, "properties": {"name": "Pannenhuis", "railway": "station", "public_transport": "station", "osm_type": "node", "osm_id": "4902681745"}}, {"type": "Feature", "geometry": {"type": "Point", "coordinates": [4.4951166, 51.1632022]}, "properties": {"name": "Boechout", "railway": "station", "public_transport": "station", "osm_type": "node", "osm_id": "5236690424"}}, {"type": "Feature", "geometry": {"type": "Point", "coordinates": [4.6665642, 51.1597466]}, "properties": {"name": "Nijlen", "railway": "station", "public_transport": "station", "osm_type": "node", "osm_id": "5236691811"}}, {"type": "Feature", "geometry": {"type": "Point", "coordinates": [4.7462157, 51.1656621]}, "properties": {"name": "Bouwel", "railway": "station", "public_transport": "station", "osm_type": "node", "osm_id": "5236691898"}}, {"type": "Feature", "geometry": {"type": "Point", "coordinates": [4.8657522, 51.6449319]}, "properties": {"name": "Busstation", "amenity": "bus_station", "public_transport": "station", "osm_type": "node", "osm_id": "5246068315"}}, {"type": "Feature", "geometry": {"type": "Point", "coordinates": [4.6385788, 52.3880778]}, "properties": {"name": "Haarlem", "railway": "station", "public_transport": "station", "osm_type": "node", "osm_id": "5252716645"}}, {"type": "Feature", "geometry": {"type": "Point", "coordinates": [4.873191, 52.3388074]}, "properties": {"name": "Amsterdam Zuid", "railway": "station", "public_transport": "station", "osm_type": "node", "osm_id": "5252944882"}}, {"type": "Feature", "geometry": {"type": "Point", "coordinates": [5.3892206, 51.5098165]}, "properties": {"name": "Best", "railway": "station", "public_transport": "station", "osm_type": "node", "osm_id": "5260996738"}}, {"type": "Feature", "geometry": {"type": "Point", "coordinates": [4.8746127, 52.3392032]}, "properties": {"name": "Zuid", "railway": "station", "public_transport": "station", "osm_type": "node", "osm_id": "5267675295"}}, {"type": "Feature", "geometry": {"type": "Point", "coordinates": [4.838877, 52.3890161]}, "properties": {"name": "Station Sloterdijk", "railway": "station", "public_transport": "station", "osm_type": "node", "osm_id": "5267675296"}}, {"type": "Feature", "geometry": {"type": "Point", "coordinates": [4.8893261, 52.3377124]}, "properties": {"name": "Station RAI", "railway": "station", "public_transport": "station", "osm_type": "node", "osm_id": "5360384018"}}, {"type": "Feature", "geometry": {"type": "Point", "coordinates": [4.3409753, 50.8402745]}, "properties": {"name": "Lemonnier", "railway": "station", "public_transport": "station", "osm_type": "node", "osm_id": "5380583021"}}, {"type": "Feature", "geometry": {"type": "Point", "coordinates": [4.345455, 50.8443013]}, "properties": {"name": "Anneessens", "railway": "station", "public_transport": "station", "osm_type": "node", "osm_id": "5382893851"}}, {"type": "Feature", "geometry": {"type": "Point", "coordinates": [4.5619531, 51.1358421]}, "properties": {"name": "Lier", "railway": "station", "public_transport": "station", "osm_type": "node", "osm_id": "5391076209"}}, {"type": "Feature", "geometry": {"type": "Point", "coordinates": [4.9009578, 52.3774316]}, "properties": {"name": "Centraal Station", "railway": "station", "public_transport": "station", "osm_type": "node", "osm_id": "5424713348"}}, {"type": "Feature", "geometry": {"type": "Point", "coordinates": [4.7481188, 50.9564078]}, "properties": {"name": "Wezemaal", "railway": "station", "public_transport": "station", "osm_type": "node", "osm_id": "5467940340"}}, {"type": "Feature", "geometry": {"type": "Point", "coordinates": [4.7163883, 50.8813615]}, "properties": {"name": "Leuven", "railway": "station", "public_transport": "station", "osm_type": "node", "osm_id": "5467988372"}}, {"type": "Feature", "geometry": {"type": "Point", "coordinates": [4.6388242, 51.1134905]}, "properties": {"name": "Berlaar", "railway": "station", "public_transport": "station", "osm_type": "node", "osm_id": "5543574057"}}, {"type": "Feature", "geometry": {"type": "Point", "coordinates": [4.671983, 51.0947001]}, "properties": {"name": "Melkouwen", "railway": "station", "public_transport": "station", "osm_type": "node", "osm_id": "5543574065"}}, {"type": "Feature", "geometry": {"type": "Point", "coordinates": [4.6179673, 51.1508801]}, "properties": {"name": "Kessel", "railway": "station", "public_transport": "station", "osm_type": "node", "osm_id": "5564945148"}}, {"type": "Feature", "geometry": {"type": "Point", "coordinates": [4.353047, 50.8514851]}, "properties": {"name": "De Brouckère", "railway": "station", "public_transport": "station", "osm_type": "node", "osm_id": "5601594183"}}, {"type": "Feature", "geometry": {"type": "Point", "coordinates": [4.937964, 51.3228669]}, "properties": {"name": "Turnhout", "railway": "station", "public_transport": "station", "osm_type": "node", "osm_id": "5632288792"}}, {"type": "Feature", "geometry": {"type": "Point", "coordinates": [4.6332122, 50.9004599]}, "properties": {"name": "Veltem", "railway": "station", "public_transport": "station", "osm_type": "node", "osm_id": "5654321189"}}, {"type": "Feature", "geometry": {"type": "Point", "coordinates": [4.6761043, 50.9038403]}, "properties": {"name": "Herent", "railway": "station", "public_transport": "station", "osm_type": "node", "osm_id": "5654321201"}}, {"type": "Feature", "geometry": {"type": "Point", "coordinates": [4.5058014, 50.8833234]}, "properties": {"name": "Nossegem", "railway": "station", "public_transport": "station", "osm_type": "node", "osm_id": "5654460048"}}, {"type": "Feature", "geometry": {"type": "Point", "coordinates": [4.5410778, 50.8927499]}, "properties": {"name": "Kortenberg", "railway": "station", "public_transport": "station", "osm_type": "node", "osm_id": "5654460111"}}, {"type": "Feature", "geometry": {"type": "Point", "coordinates": [4.5865921, 50.8966229]}, "properties": {"name": "Erps-Kwerps", "railway": "station", "public_transport": "station", "osm_type": "node", "osm_id": "5654460255"}}, {"type": "Feature", "geometry": {"type": "Point", "coordinates": [4.4452656, 50.8899584]}, "properties": {"name": "Diegem", "railway": "station", "public_transport": "station", "osm_type": "node", "osm_id": "5667469663"}}, {"type": "Feature", "geometry": {"type": "Point", "coordinates": [4.4729619, 50.8850055]}, "properties": {"name": "Zaventem", "railway": "station", "public_transport": "station", "osm_type": "node", "osm_id": "5667469692"}}, {"type": "Feature", "geometry": {"type": "Point", "coordinates": [4.4157029, 50.8897084]}, "properties": {"name": "Haren-Sud - Haren-Zuid", "railway": "station", "public_transport": "station", "osm_type": "node", "osm_id": "5673285175"}}, {"type": "Feature", "geometry": {"type": "Point", "coordinates": [4.7016294, 50.922623]}, "properties": {"name": "Wijgmaal", "railway": "station", "public_transport": "station", "osm_type": "node", "osm_id": "5688678697"}}, {"type": "Feature", "geometry": {"type": "Point", "coordinates": [4.5736867, 50.9820186]}, "properties": {"name": "Boortmeerbeek", "railway": "station", "public_transport": "station", "osm_type": "node", "osm_id": "5706148705"}}, {"type": "Feature", "geometry": {"type": "Point", "coordinates": [4.6634468, 50.9442794]}, "properties": {"name": "Hambos", "railway": "station", "public_transport": "station", "osm_type": "node", "osm_id": "5706148842"}}, {"type": "Feature", "geometry": {"type": "Point", "coordinates": [4.5134363, 51.0087257]}, "properties": {"name": "Muizen", "railway": "station", "public_transport": "station", "osm_type": "node", "osm_id": "5709413346"}}, {"type": "Feature", "geometry": {"type": "Point", "coordinates": [4.5383593, 50.9974238]}, "properties": {"name": "Hever", "railway": "station", "public_transport": "station", "osm_type": "node", "osm_id": "5709413378"}}, {"type": "Feature", "geometry": {"type": "Point", "coordinates": [4.8914727, 52.3416064]}, "properties": {"name": "Europaplein", "railway": "station", "public_transport": "station", "osm_type": "node", "osm_id": "5737467956"}}, {"type": "Feature", "geometry": {"type": "Point", "coordinates": [4.8906926, 52.3539754]}, "properties": {"name": "De Pijp", "railway": "station", "public_transport": "station", "osm_type": "node", "osm_id": "5737467957"}}, {"type": "Feature", "geometry": {"type": "Point", "coordinates": [4.8911646, 52.3608169]}, "properties": {"name": "Vijzelgracht", "railway": "station", "public_transport": "station", "osm_type": "node", "osm_id": "5737467958"}}, {"type": "Feature", "geometry": {"type": "Point", "coordinates": [4.9187004, 52.3889316]}, "properties": {"name": "Noorderpark", "railway": "station", "public_transport": "station", "osm_type": "node", "osm_id": "5737467960"}}, {"type": "Feature", "geometry": {"type": "Point", "coordinates": [4.9323589, 52.4019931]}, "properties": {"name": "Noord", "railway": "station", "public_transport": "station", "osm_type": "node", "osm_id": "5737467961"}}, {"type": "Feature", "geometry": {"type": "Point", "coordinates": [4.2980562, 51.0092413]}, "properties": {"name": "Londerzeel", "railway": "station", "public_transport": "station", "osm_type": "node", "osm_id": "5752361314"}}, {"type": "Feature", "geometry": {"type": "Point", "coordinates": [4.3590564, 51.0108251]}, "properties": {"name": "Kapelle-op-den-Bos", "railway": "station", "public_transport": "station", "osm_type": "node", "osm_id": "5752361427"}}, {"type": "Feature", "geometry": {"type": "Point", "coordinates": [4.3895883, 50.8221263]}, "properties": {"name": "Etterbeek", "railway": "station", "public_transport": "station", "osm_type": "node", "osm_id": "5924236536"}}, {"type": "Feature", "geometry": {"type": "Point", "coordinates": [4.3806152, 50.8428667]}, "properties": {"name": "Bruxelles-Schuman - Brussel-Schuman", "railway": "station", "public_transport": "station", "osm_type": "node", "osm_id": "5924443350"}}, {"type": "Feature", "geometry": {"type": "Point", "coordinates": [4.4427241, 51.2144105]}, "properties": {"name": "Zegel", "railway": "station", "public_transport": "station", "osm_type": "node", "osm_id": "6027637567"}}, {"type": "Feature", "geometry": {"type": "Point", "coordinates": [4.4213093, 51.2190222]}, "properties": {"name": "Astrid", "railway": "station", "public_transport": "station", "osm_type": "node", "osm_id": "6027637569"}}, {"type": "Feature", "geometry": {"type": "Point", "coordinates": [4.4023271, 50.8491586]}, "properties": {"name": "Diamant", "railway": "station", "public_transport": "station", "osm_type": "node", "osm_id": "6160216323"}}, {"type": "Feature", "geometry": {"type": "Point", "coordinates": [4.3491201, 50.8478282]}, "properties": {"name": "Bourse - Beurs", "railway": "station", "public_transport": "station", "osm_type": "node", "osm_id": "6276214962"}}, {"type": "Feature", "geometry": {"type": "Point", "coordinates": [4.3425655, 50.8215407]}, "properties": {"name": "Albert", "railway": "station", "public_transport": "station", "osm_type": "node", "osm_id": "6414192032"}}, {"type": "Feature", "geometry": {"type": "Point", "coordinates": [5.2118345, 52.3541025]}, "properties": {"name": "Busstation 't Oor", "amenity": "bus_station", "public_transport": "station", "osm_type": "node", "osm_id": "6448103299"}}, {"type": "Feature", "geometry": {"type": "Point", "coordinates": [4.3428865, 50.8327988]}, "properties": {"name": "Porte de Hal - Hallepoort", "railway": "station", "public_transport": "station", "osm_type": "node", "osm_id": "6587283782"}}, {"type": "Feature", "geometry": {"type": "Point", "coordinates": [4.3461376, 50.8298326]}, "properties": {"name": "Parvis de Saint-Gilles - Sint-Gillisvoorplein", "railway": "station", "public_transport": "station", "osm_type": "node", "osm_id": "6588316478"}}, {"type": "Feature", "geometry": {"type": "Point", "coordinates": [4.3457493, 50.8259485]}, "properties": {"name": "Horta", "railway": "station", "public_transport": "station", "osm_type": "node", "osm_id": "6657500836"}}, {"type": "Feature", "geometry": {"type": "Point", "coordinates": [4.4053128, 50.8332284]}, "properties": {"name": "Boileau", "railway": "station", "public_transport": "station", "osm_type": "node", "osm_id": "6681534645"}}, {"type": "Feature", "geometry": {"type": "Point", "coordinates": [5.3925474, 51.4570203]}, "properties": {"name": "Eindhoven Airport", "amenity": "bus_station", "public_transport": "station", "osm_type": "node", "osm_id": "6855292037"}}, {"type": "Feature", "geometry": {"type": "Point", "coordinates": [4.4054308, 50.843774]}, "properties": {"name": "Georges Henri", "railway": "station", "public_transport": "station", "osm_type": "node", "osm_id": "6987487814"}}, {"type": "Feature", "geometry": {"type": "Point", "coordinates": [5.1571557, 52.280646]}, "properties": {"name": "Naarden-Bussum", "railway": "station", "public_transport": "station", "osm_type": "node", "osm_id": "7045108268"}}, {"type": "Feature", "geometry": {"type": "Point", "coordinates": [4.2733784, 50.7659519]}, "properties": {"name": "Lot", "railway": "station", "public_transport": "station", "osm_type": "node", "osm_id": "7072200482"}}, {"type": "Feature", "geometry": {"type": "Point", "coordinates": [4.3083756, 50.8078159]}, "properties": {"name": "Forest-Midi - Vorst-Zuid", "railway": "station", "public_transport": "station", "osm_type": "node", "osm_id": "7072204237"}}, {"type": "Feature", "geometry": {"type": "Point", "coordinates": [4.2949713, 50.7910623]}, "properties": {"name": "Ruisbroek", "railway": "station", "public_transport": "station", "osm_type": "node", "osm_id": "7072245726"}}, {"type": "Feature", "geometry": {"type": "Point", "coordinates": [4.9463156, 52.310697]}, "properties": {"name": "Flixbus", "amenity": "bus_station", "public_transport": "station", "osm_type": "node", "osm_id": "7157145586"}}, {"type": "Feature", "geometry": {"type": "Point", "coordinates": [4.4277566, 51.2613742]}, "properties": {"name": "Antwerpen-Noorderdokken", "railway": "station", "public_transport": "station", "osm_type": "node", "osm_id": "7216689571"}}, {"type": "Feature", "geometry": {"type": "Point", "coordinates": [4.4248963, 51.2443659]}, "properties": {"name": "Antwerpen-Luchtbal", "railway": "station", "public_transport": "station", "osm_type": "node", "osm_id": "7216689580"}}, {"type": "Feature", "geometry": {"type": "Point", "coordinates": [4.4008547, 50.8676818]}, "properties": {"name": "Evere", "railway": "station", "public_transport": "station", "osm_type": "node", "osm_id": "7243258290"}}, {"type": "Feature", "geometry": {"type": "Point", "coordinates": [4.4577402, 50.9586694]}, "properties": {"name": "Eppegem", "railway": "station", "public_transport": "station", "osm_type": "node", "osm_id": "7253672907"}}, {"type": "Feature", "geometry": {"type": "Point", "coordinates": [4.4327691, 50.9245857]}, "properties": {"name": "Vilvoorde", "railway": "station", "public_transport": "station", "osm_type": "node", "osm_id": "7253672929"}}, {"type": "Feature", "geometry": {"type": "Point", "coordinates": [4.4176319, 50.9081115]}, "properties": {"name": "Buda", "railway": "station", "public_transport": "station", "osm_type": "node", "osm_id": "7253672949"}}, {"type": "Feature", "geometry": {"type": "Point", "coordinates": [4.4714015, 50.9777709]}, "properties": {"name": "Weerde", "railway": "station", "public_transport": "station", "osm_type": "node", "osm_id": "7259032381"}}, {"type": "Feature", "geometry": {"type": "Point", "coordinates": [4.4928744, 51.0913781]}, "properties": {"name": "Duffel", "railway": "station", "public_transport": "station", "osm_type": "node", "osm_id": "7261826893"}}, {"type": "Feature", "geometry": {"type": "Point", "coordinates": [4.4958343, 51.0706591]}, "properties": {"name": "Sint-Katelijne-Waver", "railway": "station", "public_transport": "station", "osm_type": "node", "osm_id": "7261826896"}}, {"type": "Feature", "geometry": {"type": "Point", "coordinates": [4.4902298, 51.0302855]}, "properties": {"name": "Mechelen-Nekkerspoel", "railway": "station", "public_transport": "station", "osm_type": "node", "osm_id": "7261826908"}}, {"type": "Feature", "geometry": {"type": "Point", "coordinates": [4.4557851, 51.1711434]}, "properties": {"name": "Mortsel-Oude-God", "railway": "station", "public_transport": "station", "osm_type": "node", "osm_id": "7267350074"}}, {"type": "Feature", "geometry": {"type": "Point", "coordinates": [4.4655959, 51.1533777]}, "properties": {"name": "Hove", "railway": "station", "public_transport": "station", "osm_type": "node", "osm_id": "7267350785"}}, {"type": "Feature", "geometry": {"type": "Point", "coordinates": [4.4766676, 51.1339486]}, "properties": {"name": "Kontich-Lint", "railway": "station", "public_transport": "station", "osm_type": "node", "osm_id": "7267350804"}}, {"type": "Feature", "geometry": {"type": "Point", "coordinates": [4.4323348, 51.1997015]}, "properties": {"name": "Antwerpen-Berchem", "railway": "station", "public_transport": "station", "iata": "ZYZ", "osm_type": "node", "osm_id": "7272811038"}}, {"type": "Feature", "geometry": {"type": "Point", "coordinates": [4.3282081, 50.8809447]}, "properties": {"name": "Jette", "railway": "station", "public_transport": "station", "osm_type": "node", "osm_id": "7339999848"}}, {"type": "Feature", "geometry": {"type": "Point", "coordinates": [4.4691651, 51.1695282]}, "properties": {"name": "Mortsel-Liersesteenweg", "railway": "station", "public_transport": "station", "osm_type": "node", "osm_id": "7359338065"}}, {"type": "Feature", "geometry": {"type": "Point", "coordinates": [4.4472516, 51.1831225]}, "properties": {"name": "Mortsel", "railway": "station", "public_transport": "station", "osm_type": "node", "osm_id": "7359586102"}}, {"type": "Feature", "geometry": {"type": "Point", "coordinates": [4.4983144, 50.9884748]}, "properties": {"name": "Hofstade", "railway": "station", "public_transport": "station", "osm_type": "node", "osm_id": "7366110667"}}, {"type": "Feature", "geometry": {"type": "Point", "coordinates": [4.3560247, 51.0664347]}, "properties": {"name": "Willebroek", "railway": "station", "public_transport": "station", "osm_type": "node", "osm_id": "7390621895"}}, {"type": "Feature", "geometry": {"type": "Point", "coordinates": [4.2828146, 51.0772325]}, "properties": {"name": "Puurs", "railway": "station", "public_transport": "station", "osm_type": "node", "osm_id": "7391633177"}}, {"type": "Feature", "geometry": {"type": "Point", "coordinates": [4.3256858, 51.0810559]}, "properties": {"name": "Ruisbroek-Sauvegarde", "railway": "station", "public_transport": "station", "osm_type": "node", "osm_id": "7394213288"}}, {"type": "Feature", "geometry": {"type": "Point", "coordinates": [4.3402494, 51.125525]}, "properties": {"name": "Schelle", "railway": "station", "public_transport": "station", "osm_type": "node", "osm_id": "7394315721"}}, {"type": "Feature", "geometry": {"type": "Point", "coordinates": [4.3398952, 51.1110591]}, "properties": {"name": "Niel", "railway": "station", "public_transport": "station", "osm_type": "node", "osm_id": "7394315746"}}, {"type": "Feature", "geometry": {"type": "Point", "coordinates": [4.3603723, 51.0908512]}, "properties": {"name": "Boom", "railway": "station", "public_transport": "station", "osm_type": "node", "osm_id": "7394315782"}}, {"type": "Feature", "geometry": {"type": "Point", "coordinates": [4.3483807, 51.1829633]}, "properties": {"name": "Hoboken-Polder", "railway": "station", "public_transport": "station", "osm_type": "node", "osm_id": "7395943708"}}, {"type": "Feature", "geometry": {"type": "Point", "coordinates": [4.3384992, 51.1363336]}, "properties": {"name": "Hemiksem", "railway": "station", "public_transport": "station", "osm_type": "node", "osm_id": "7395943757"}}, {"type": "Feature", "geometry": {"type": "Point", "coordinates": [4.3306372, 51.2141489]}, "properties": {"name": "Zwijndrecht", "railway": "station", "public_transport": "station", "osm_type": "node", "osm_id": "7397978134"}}, {"type": "Feature", "geometry": {"type": "Point", "coordinates": [4.2597046, 51.2082712]}, "properties": {"name": "Beveren", "railway": "station", "public_transport": "station", "osm_type": "node", "osm_id": "7398182178"}}, {"type": "Feature", "geometry": {"type": "Point", "coordinates": [4.2867883, 51.2107092]}, "properties": {"name": "Melsele", "railway": "station", "public_transport": "station", "osm_type": "node", "osm_id": "7398197229"}}, {"type": "Feature", "geometry": {"type": "Point", "coordinates": [5.4795265, 51.4429623]}, "properties": {"name": "Eindhoven Centraal", "railway": "station", "public_transport": "station", "osm_type": "node", "osm_id": "7510315998"}}, {"type": "Feature", "geometry": {"type": "Point", "coordinates": [5.193898, 51.5821442]}, "properties": {"name": "Oisterwijk", "railway": "station", "public_transport": "station", "osm_type": "node", "osm_id": "7515240586"}}, {"type": "Feature", "geometry": {"type": "Point", "coordinates": [4.6067862, 52.3595052]}, "properties": {"name": "Heemstede-Aerdenhout", "railway": "station", "public_transport": "station", "osm_type": "node", "osm_id": "7606551879"}}, {"type": "Feature", "geometry": {"type": "Point", "coordinates": [4.6068322, 52.3910774]}, "properties": {"name": "Overveen", "railway": "station", "public_transport": "station", "osm_type": "node", "osm_id": "7606551881"}}, {"type": "Feature", "geometry": {"type": "Point", "coordinates": [4.6713542, 52.3828478]}, "properties": {"name": "Haarlem Spaarnwoude", "railway": "station", "public_transport": "station", "osm_type": "node", "osm_id": "7606551882"}}, {"type": "Feature", "geometry": {"type": "Point", "coordinates": [4.6387141, 52.4427409]}, "properties": {"name": "Driehuis", "railway": "station", "public_transport": "station", "osm_type": "node", "osm_id": "7606581797"}}, {"type": "Feature", "geometry": {"type": "Point", "coordinates": [4.6328181, 52.4338437]}, "properties": {"name": "Santpoort Noord", "railway": "station", "public_transport": "station", "osm_type": "node", "osm_id": "7606581798"}}, {"type": "Feature", "geometry": {"type": "Point", "coordinates": [4.6314176, 52.4193488]}, "properties": {"name": "Santpoort Zuid", "railway": "station", "public_transport": "station", "osm_type": "node", "osm_id": "7606581799"}}, {"type": "Feature", "geometry": {"type": "Point", "coordinates": [4.6276629, 52.4043478]}, "properties": {"name": "Bloemendaal", "railway": "station", "public_transport": "station", "osm_type": "node", "osm_id": "7606581800"}}, {"type": "Feature", "geometry": {"type": "Point", "coordinates": [4.70259, 52.5214311]}, "properties": {"name": "Uitgeest", "railway": "station", "public_transport": "station", "osm_type": "node", "osm_id": "7606596763"}}, {"type": "Feature", "geometry": {"type": "Point", "coordinates": [4.6861262, 52.4946348]}, "properties": {"name": "Heemskerk", "railway": "station", "public_transport": "station", "osm_type": "node", "osm_id": "7606596764"}}, {"type": "Feature", "geometry": {"type": "Point", "coordinates": [4.6566186, 52.4785365]}, "properties": {"name": "Beverwijk", "railway": "station", "public_transport": "station", "osm_type": "node", "osm_id": "7606596765"}}, {"type": "Feature", "geometry": {"type": "Point", "coordinates": [5.4935229, 52.2220274]}, "properties": {"name": "Nijkerk", "railway": "station", "public_transport": "station", "osm_type": "node", "osm_id": "7606617876"}}, {"type": "Feature", "geometry": {"type": "Point", "coordinates": [5.5758773, 52.2654979]}, "properties": {"name": "Putten", "railway": "station", "public_transport": "station", "osm_type": "node", "osm_id": "7606617877"}}, {"type": "Feature", "geometry": {"type": "Point", "coordinates": [5.7844187, 52.3708164]}, "properties": {"name": "Nunspeet", "railway": "station", "public_transport": "station", "osm_type": "node", "osm_id": "7606617878"}}, {"type": "Feature", "geometry": {"type": "Point", "coordinates": [5.8930152, 52.4091474]}, "properties": {"name": "'t Harde", "railway": "station", "public_transport": "station", "osm_type": "node", "osm_id": "7606617879"}}, {"type": "Feature", "geometry": {"type": "Point", "coordinates": [5.190341, 52.367558]}, "properties": {"name": "Almere Muziekwijk", "railway": "station", "public_transport": "station", "osm_type": "node", "osm_id": "7606648990"}}, {"type": "Feature", "geometry": {"type": "Point", "coordinates": [5.0440484, 52.3122067]}, "properties": {"name": "Weesp", "railway": "station", "public_transport": "station", "osm_type": "node", "osm_id": "7606648991"}}, {"type": "Feature", "geometry": {"type": "Point", "coordinates": [4.948315, 52.352926]}, "properties": {"name": "Amsterdam Science Park", "railway": "station", "public_transport": "station", "osm_type": "node", "osm_id": "7606648992"}}, {"type": "Feature", "geometry": {"type": "Point", "coordinates": [5.1628737, 52.2658951]}, "properties": {"name": "Bussum Zuid", "railway": "station", "public_transport": "station", "osm_type": "node", "osm_id": "7606656809"}}, {"type": "Feature", "geometry": {"type": "Point", "coordinates": [5.1740114, 52.2378723]}, "properties": {"name": "Hilversum Media Park", "railway": "station", "public_transport": "station", "osm_type": "node", "osm_id": "7606656810"}}, {"type": "Feature", "geometry": {"type": "Point", "coordinates": [5.1812974, 52.2265342]}, "properties": {"name": "Hilversum", "railway": "station", "public_transport": "station", "osm_type": "node", "osm_id": "7606656811"}}, {"type": "Feature", "geometry": {"type": "Point", "coordinates": [5.1873161, 52.2164296]}, "properties": {"name": "Hilversum Sportpark", "railway": "station", "public_transport": "station", "osm_type": "node", "osm_id": "7606656812"}}, {"type": "Feature", "geometry": {"type": "Point", "coordinates": [5.2817232, 52.2080875]}, "properties": {"name": "Baarn", "railway": "station", "public_transport": "station", "osm_type": "node", "osm_id": "7606656814"}}, {"type": "Feature", "geometry": {"type": "Point", "coordinates": [4.9670882, 52.5112223]}, "properties": {"name": "Purmerend Overwhere", "railway": "station", "public_transport": "station", "osm_type": "node", "osm_id": "7606663918"}}, {"type": "Feature", "geometry": {"type": "Point", "coordinates": [4.9544121, 52.5039525]}, "properties": {"name": "Purmerend", "railway": "station", "public_transport": "station", "osm_type": "node", "osm_id": "7606663919"}}, {"type": "Feature", "geometry": {"type": "Point", "coordinates": [4.9350292, 52.4963796]}, "properties": {"name": "Purmerend Weidevenne", "railway": "station", "public_transport": "station", "osm_type": "node", "osm_id": "7606663920"}}, {"type": "Feature", "geometry": {"type": "Point", "coordinates": [4.8191929, 52.4567546]}, "properties": {"name": "Zaandam Kogerveld", "railway": "station", "public_transport": "station", "osm_type": "node", "osm_id": "7606663921"}}, {"type": "Feature", "geometry": {"type": "Point", "coordinates": [4.8056834, 52.4578263]}, "properties": {"name": "Koog aan de Zaan", "railway": "station", "public_transport": "station", "osm_type": "node", "osm_id": "7606663922"}}, {"type": "Feature", "geometry": {"type": "Point", "coordinates": [4.967465, 52.3452067]}, "properties": {"name": "Diemen", "railway": "station", "public_transport": "station", "osm_type": "node", "osm_id": "7606698742"}}, {"type": "Feature", "geometry": {"type": "Point", "coordinates": [4.4824903, 50.8983736]}, "properties": {"name": "Brussels Airport-Zaventem", "railway": "station", "public_transport": "station", "osm_type": "node", "osm_id": "8313215285"}}, {"type": "Feature", "geometry": {"type": "Point", "coordinates": [4.8144044, 52.4389877]}, "properties": {"name": "Busstation Zaandam", "amenity": "bus_station", "public_transport": "station", "osm_type": "node", "osm_id": "9140761815"}}, {"type": "Feature", "geometry": {"type": "Point", "coordinates": [4.9009058, 52.3791977]}, "properties": {"name": "Centraal Station", "railway": "station", "public_transport": "station", "osm_type": "node", "osm_id": "9167352325"}}, {"type": "Feature", "geometry": {"type": "Point", "coordinates": [4.8578424, 52.3024926]}, "properties": {"name": "Amstelveen, Busstation", "amenity": "bus_station", "public_transport": "station", "osm_type": "node", "osm_id": "10543744235"}}, {"type": "Feature", "geometry": {"type": "Point", "coordinates": [4.3144068, 50.8013269]}, "properties": {"name": "Forest-Saint-Georges", "railway": "station", "osm_type": "node", "osm_id": "11718250773"}}, {"type": "Feature", "geometry": {"type": "Point", "coordinates": [5.7651956, 52.4417294]}, "properties": {"name": "Walibi Express Station 2", "railway": "station", "public_transport": "station", "osm_type": "node", "osm_id": "11743486672"}}, {"type": "Feature", "geometry": {"type": "Point", "coordinates": [4.4063277, 51.2182162]}, "properties": {"name": "Meir", "railway": "station", "public_transport": "station", "osm_type": "node", "osm_id": "12095459373"}}, {"type": "Feature", "geometry": {"type": "Point", "coordinates": [4.3867608, 51.220825]}, "properties": {"name": "Van Eeden", "railway": "station", "public_transport": "station", "osm_type": "node", "osm_id": "12095462790"}}, {"type": "Feature", "geometry": {"type": "Point", "coordinates": [4.4205433, 51.2166716]}, "properties": {"name": "Diamant", "railway": "station", "public_transport": "station", "osm_type": "node", "osm_id": "12095463891"}}, {"type": "Feature", "geometry": {"type": "Point", "coordinates": [4.4388742, 51.2272447]}, "properties": {"name": "Schijnpoort", "railway": "station", "public_transport": "station", "osm_type": "node", "osm_id": "12095471705"}}, {"type": "Feature", "geometry": {"type": "Point", "coordinates": [4.431952, 51.2242073]}, "properties": {"name": "Handel", "railway": "station", "public_transport": "station", "osm_type": "node", "osm_id": "12095471707"}}, {"type": "Feature", "geometry": {"type": "Point", "coordinates": [4.4240691, 51.222804]}, "properties": {"name": "Elisabeth", "railway": "station", "public_transport": "station", "osm_type": "node", "osm_id": "12095471708"}}, {"type": "Feature", "geometry": {"type": "Point", "coordinates": [4.4016388, 51.2186144]}, "properties": {"name": "Groenplaats", "railway": "station", "public_transport": "station", "osm_type": "node", "osm_id": "12095480888"}}, {"type": "Feature", "geometry": {"type": "Point", "coordinates": [4.4427177, 51.2301579]}, "properties": {"name": "Sport", "railway": "station", "public_transport": "station", "osm_type": "node", "osm_id": "12095481515"}}, {"type": "Feature", "geometry": {"type": "Point", "coordinates": [4.4154916, 51.21793]}, "properties": {"name": "Opera", "railway": "station", "public_transport": "station", "osm_type": "node", "osm_id": "12095487068"}}, {"type": "Feature", "geometry": {"type": "Point", "coordinates": [4.4219896, 51.2106022]}, "properties": {"name": "Plantin", "railway": "station", "public_transport": "station", "osm_type": "node", "osm_id": "12095489348"}}, {"type": "Feature", "geometry": {"type": "Point", "coordinates": [5.7661461, 52.4401992]}, "properties": {"name": "Walibi Express Station 1", "tourism": "attraction", "railway": "station", "public_transport": "station", "osm_type": "node", "osm_id": "12282543297"}}, {"type": "Feature", "geometry": {"type": "Point", "coordinates": [5.2927159, 51.6499279]}, "properties": {"name": "Vught", "railway": "station", "public_transport": "station", "osm_type": "node", "osm_id": "13058465700"}}, {"type": "Feature", "geometry": {"type": "Point", "coordinates": [4.2634941, 51.0750233]}, "properties": {"name": "Sint-Pietersburcht", "railway": "station", "public_transport": "station", "osm_type": "node", "osm_id": "13745028057"}}, {"type": "Feature", "geometry": {"type": "Point", "coordinates": [5.5151392, 52.4549514]}, "properties": {"name": "Lelystad Airport", "aeroway": "aerodrome", "iata": "LEY", "icao": "EHLE", "osm_type": "way", "osm_id": "6344401"}}, {"type": "Feature", "geometry": {"type": "Point", "coordinates": [4.4631377, 51.189013]}, "properties": {"name": "Internationale Luchthaven Antwerpen", "aeroway": "aerodrome", "iata": "ANR", "icao": "EBAW", "osm_type": "way", "osm_id": "9550802"}}, {"type": "Feature", "geometry": {"type": "Point", "coordinates": [4.4815351, 50.8979066]}, "properties": {"name": "Brussels Airport", "amenity": "bus_station", "public_transport": "station", "osm_type": "way", "osm_id": "15242087"}}, {"type": "Feature", "geometry": {"type": "Point", "coordinates": [4.9441821, 52.507288]}, "properties": {"name": "Busstation Tramplein", "amenity": "bus_station", "public_transport": "station", "osm_type": "way", "osm_id": "24323881"}}, {"type": "Feature", "geometry": {"type": "Point", "coordinates": [4.6711895, 52.383367]}, "properties": {"name": "Haarlem Spaarnwoude", "amenity": "bus_station", "public_transport": "station", "osm_type": "way", "osm_id": "25116906"}}, {"type": "Feature", "geometry": {"type": "Point", "coordinates": [4.444747, 50.8568647]}, "properties": {"name": "EEB2 Bus stops", "amenity": "bus_station", "public_transport": "station", "osm_type": "way", "osm_id": "31579229"}}, {"type": "Feature", "geometry": {"type": "Point", "coordinates": [4.3925184, 50.9482936]}, "properties": {"name": "Grimbergen Lint", "aeroway": "aerodrome", "icao": "EBGB", "osm_type": "way", "osm_id": "50003970"}}, {"type": "Feature", "geometry": {"type": "Point", "coordinates": [5.2433741, 52.2990907]}, "properties": {"amenity": "bus_station", "public_transport": "station", "osm_type": "way", "osm_id": "52644636"}}, {"type": "Feature", "geometry": {"type": "Point", "coordinates": [4.2987631, 51.008866]}, "properties": {"amenity": "bus_station", "public_transport": "station", "osm_type": "way", "osm_id": "60046449"}}, {"type": "Feature", "geometry": {"type": "Point", "coordinates": [5.2947996, 51.6899545]}, "properties": {"name": "Centraal Station", "amenity": "bus_station", "public_transport": "station", "osm_type": "way", "osm_id": "88432545"}}, {"type": "Feature", "geometry": {"type": "Point", "coordinates": [4.7667805, 50.7558076]}, "properties": {"name": "Beauvechain Air Base", "landuse": "military", "aeroway": "aerodrome", "icao": "EBBE", "osm_type": "way", "osm_id": "88691988"}}, {"type": "Feature", "geometry": {"type": "Point", "coordinates": [4.5623858, 51.1357008]}, "properties": {"name": "Lier Station", "amenity": "bus_station", "osm_type": "way", "osm_id": "89702335"}}, {"type": "Feature", "geometry": {"type": "Point", "coordinates": [4.6378919, 52.3872636]}, "properties": {"name": "Haarlem, Station", "amenity": "bus_station", "public_transport": "station", "osm_type": "way", "osm_id": "96825911"}}, {"type": "Feature", "geometry": {"type": "Point", "coordinates": [4.6223804, 52.4782835]}, "properties": {"amenity": "bus_station", "public_transport": "station", "osm_type": "way", "osm_id": "123151113"}}, {"type": "Feature", "geometry": {"type": "Point", "coordinates": [4.4243739, 51.0788132]}, "properties": {"name": "Rumst Busstation", "amenity": "bus_station", "public_transport": "station", "osm_type": "way", "osm_id": "136647364"}}, {"type": "Feature", "geometry": {"type": "Point", "coordinates": [4.2985038, 51.0092691]}, "properties": {"name": "Londerzeel", "amenity": "bus_station", "public_transport": "station", "osm_type": "way", "osm_id": "144136754"}}, {"type": "Feature", "geometry": {"type": "Point", "coordinates": [4.3604302, 51.090251]}, "properties": {"name": "Boom Station", "amenity": "bus_station", "osm_type": "way", "osm_id": "181317337"}}, {"type": "Feature", "geometry": {"type": "Point", "coordinates": [4.9342364, 51.321338]}, "properties": {"name": "Busstation Turnhout", "amenity": "bus_station", "osm_type": "way", "osm_id": "235752370"}}, {"type": "Feature", "geometry": {"type": "Point", "coordinates": [4.8925799, 52.3705966]}, "properties": {"name": "Rokin", "railway": "station", "public_transport": "station", "osm_type": "way", "osm_id": "266903916"}}, {"type": "Feature", "geometry": {"type": "Point", "coordinates": [4.9024643, 52.3673901]}, "properties": {"name": "Waterlooplein", "railway": "station", "public_transport": "station", "osm_type": "way", "osm_id": "268782305"}}, {"type": "Feature", "geometry": {"type": "Point", "coordinates": [4.9079744, 52.3611848]}, "properties": {"name": "Weesperplein", "railway": "station", "public_transport": "station", "osm_type": "way", "osm_id": "268998785"}}, {"type": "Feature", "geometry": {"type": "Point", "coordinates": [5.4784713, 51.4439309]}, "properties": {"name": "Eindhoven Centraal Station", "amenity": "bus_station", "public_transport": "station", "osm_type": "way", "osm_id": "305610793"}}, {"type": "Feature", "geometry": {"type": "Point", "coordinates": [4.7930304, 52.3225384]}, "properties": {"amenity": "bus_station", "public_transport": "station", "osm_type": "way", "osm_id": "356449244"}}, {"type": "Feature", "geometry": {"type": "Point", "coordinates": [5.1172569, 51.5209757]}, "properties": {"name": "Bus Safari", "amenity": "bus_station", "osm_type": "way", "osm_id": "362477768"}}, {"type": "Feature", "geometry": {"type": "Point", "coordinates": [4.8771137, 52.3694175]}, "properties": {"name": "Busstation Elandsgracht", "amenity": "bus_station", "public_transport": "station", "osm_type": "way", "osm_id": "368673642"}}, {"type": "Feature", "geometry": {"type": "Point", "coordinates": [4.4858042, 50.9009305]}, "properties": {"name": "Brussels Airport", "aeroway": "aerodrome", "iata": "BRU", "icao": "EBBR", "osm_type": "way", "osm_id": "370594935"}}, {"type": "Feature", "geometry": {"type": "Point", "coordinates": [4.8564742, 52.4293919]}, "properties": {"name": "De Vlinder", "amenity": "bus_station", "public_transport": "station", "osm_type": "way", "osm_id": "455560644"}}, {"type": "Feature", "geometry": {"type": "Point", "coordinates": [4.7747904, 52.3218159]}, "properties": {"name": "P40", "amenity": "bus_station", "public_transport": "station", "osm_type": "way", "osm_id": "459822003"}}, {"type": "Feature", "geometry": {"type": "Point", "coordinates": [5.0852217, 51.5850954]}, "properties": {"amenity": "bus_station", "public_transport": "station", "osm_type": "way", "osm_id": "544142493"}}, {"type": "Feature", "geometry": {"type": "Point", "coordinates": [5.0716912, 51.6871814]}, "properties": {"name": "Vredesplein", "amenity": "bus_station", "public_transport": "station", "osm_type": "way", "osm_id": "545101100"}}, {"type": "Feature", "geometry": {"type": "Point", "coordinates": [5.0810529, 51.560516]}, "properties": {"name": "Tilburg Centraal Station", "amenity": "bus_station", "public_transport": "station", "osm_type": "way", "osm_id": "546910677"}}, {"type": "Feature", "geometry": {"type": "Point", "coordinates": [5.0419133, 51.6535711]}, "properties": {"name": "Efteling", "amenity": "bus_station", "public_transport": "station", "osm_type": "way", "osm_id": "627357797"}}, {"type": "Feature", "geometry": {"type": "Point", "coordinates": [5.4749197, 51.4668711]}, "properties": {"name": "WoensXL/ZH Catharina", "amenity": "bus_station", "public_transport": "station", "osm_type": "way", "osm_id": "799048386"}}, {"type": "Feature", "geometry": {"type": "Point", "coordinates": [4.9240158, 51.5670002]}, "properties": {"name": "Vliegbasis Gilze-Rijen", "landuse": "military", "aeroway": "aerodrome", "iata": "GLZ", "icao": "EHGR", "osm_type": "way", "osm_id": "946527393"}}, {"type": "Feature", "geometry": {"type": "Point", "coordinates": [4.7685856, 52.2586715]}, "properties": {"name": "Busstation Aalsmeer", "amenity": "bus_station", "osm_type": "way", "osm_id": "998163210"}}, {"type": "Feature", "geometry": {"type": "Point", "coordinates": [5.2180096, 52.3751461]}, "properties": {"name": "Station Centrum", "amenity": "bus_station", "public_transport": "station", "osm_type": "way", "osm_id": "1109758109"}}, {"type": "Feature", "geometry": {"type": "Point", "coordinates": [5.0444734, 52.510239]}, "properties": {"name": "Edam Busstation", "amenity": "bus_station", "public_transport": "station", "osm_type": "way", "osm_id": "1147991348"}}, {"type": "Feature", "geometry": {"type": "Point", "coordinates": [4.9934961, 52.511489]}, "properties": {"name": "Korenstraat", "amenity": "bus_station", "public_transport": "station", "osm_type": "way", "osm_id": "1200818692"}}, {"type": "Feature", "geometry": {"type": "Point", "coordinates": [5.4762248, 51.4438826]}, "properties": {"name": "NS-busstation", "amenity": "bus_station", "public_transport": "station", "osm_type": "way", "osm_id": "1224402825"}}, {"type": "Feature", "geometry": {"type": "Point", "coordinates": [4.9311929, 52.3608538]}, "properties": {"name": "Amsterdam Muiderpoort", "railway": "station", "public_transport": "station", "osm_type": "way", "osm_id": "1409848101"}}, {"type": "Feature", "geometry": {"type": "Point", "coordinates": [4.3553954, 51.0667906]}, "properties": {"name": "Willebroek Station", "amenity": "bus_station", "osm_type": "way", "osm_id": "1411405239"}}, {"type": "Feature", "geometry": {"type": "Point", "coordinates": [4.3868192, 51.2208207]}, "properties": {"name": "Van Eeden", "amenity": "bus_station", "osm_type": "way", "osm_id": "1448186490"}}, {"type": "Feature", "geometry": {"type": "Point", "coordinates": [4.7146428, 50.8821384]}, "properties": {"name": "Leuven Station", "amenity": "bus_station", "public_transport": "station", "osm_type": "way", "osm_id": "1456313784"}}, {"type": "Feature", "geometry": {"type": "Point", "coordinates": [5.1813714, 52.225797]}, "properties": {"name": "Station", "amenity": "bus_station", "osm_type": "way", "osm_id": "1465331728"}}, {"type": "Feature", "geometry": {"type": "Point", "coordinates": [4.7282406, 52.2839955]}, "properties": {"name": "Main Hub", "amenity": "bus_station", "public_transport": "station", "osm_type": "way", "osm_id": "1469401025"}}, {"type": "Feature", "geometry": {"type": "Point", "coordinates": [4.9589718, 52.297173]}, "properties": {"name": "Busstation Holendrecht", "amenity": "bus_station", "public_transport": "station", "osm_type": "way", "osm_id": "1481336446"}}, {"type": "Feature", "geometry": {"type": "Point", "coordinates": [4.7577653, 52.3267805]}, "properties": {"name": "Luchthaven Schiphol", "aeroway": "aerodrome", "iata": "AMS", "icao": "EHAM", "osm_type": "relation", "osm_id": "12470437"}}, {"type": "Feature", "geometry": {"type": "Point", "coordinates": [5.3778868, 51.4517823]}, "properties": {"name": "Eindhoven Airport", "aeroway": "aerodrome", "iata": "EIN", "icao": "EHEH", "osm_type": "relation", "osm_id": "18216741"}}, {"type": "Feature", "geometry": {"type": "Point", "coordinates": [4.4916834, 50.9149438]}, "properties": {"name": "Brussels Military Airport", "landuse": "military", "aeroway": "aerodrome", "icao": "EBMB", "osm_type": "relation", "osm_id": "19022058"}}]}