{
  "version": 0.6,
  "generator": "Overpass API 0.7.62.11 87bfad18",
  "osm3s": {
    "timestamp_osm_base": "2026-04-21T17:01:53Z",
    "copyright": "The data included in this document is from www.openstreetmap.org. The data is made available under ODbL."
  },
  "elements": [

{
  "type": "node",
  "id": 286128475,
  "lat": 51.1275895,
  "lon": 4.4745673,
  "tags": {
    "addr:city": "Kontich",
    "addr:postcode": "2550",
    "amenity": "school",
    "name": "Montfortschool"
  }
},
{
  "type": "node",
  "id": 523287316,
  "lat": 51.1257565,
  "lon": 4.4960229,
  "tags": {
    "amenity": "school",
    "name": "Gemeentelijke basisschool"
  }
},
{
  "type": "node",
  "id": 523287663,
  "lat": 51.1276466,
  "lon": 4.4902690,
  "tags": {
    "amenity": "school",
    "name": "De Wilg"
  }
},
{
  "type": "node",
  "id": 596237878,
  "lat": 51.5831264,
  "lon": 5.1404407,
  "tags": {
    "amenity": "school",
    "name": "Rennevoirt"
  }
},
{
  "type": "node",
  "id": 694541918,
  "lat": 51.1479047,
  "lon": 4.4631598,
  "tags": {
    "addr:housenumber": "108",
    "addr:street": "Mechelsesteenweg",
    "amenity": "kindergarten",
    "check_date": "2024-08-11",
    "name": "Benito"
  }
},
{
  "type": "node",
  "id": 787710006,
  "lat": 51.0509224,
  "lon": 4.3462367,
  "tags": {
    "amenity": "school"
  }
},
{
  "type": "node",
  "id": 968895867,
  "lat": 51.0648329,
  "lon": 4.3613040,
  "tags": {
    "amenity": "school",
    "name": "Sancta Maria"
  }
},
{
  "type": "node",
  "id": 1329745299,
  "lat": 51.0952041,
  "lon": 4.4982754,
  "tags": {
    "amenity": "school",
    "name": "Gemeentelijk Technisch Instituut (GTI)",
    "wikidata": "Q16912056"
  }
},
{
  "type": "node",
  "id": 1930285619,
  "lat": 51.5832233,
  "lon": 5.1400194,
  "tags": {
    "amenity": "kindergarten",
    "check_date": "2023-07-04",
    "name": "peuterplaza"
  }
},
{
  "type": "node",
  "id": 1973654141,
  "lat": 51.0798529,
  "lon": 4.3978535,
  "tags": {
    "amenity": "kindergarten",
    "name": "'t Eigenwijsje",
    "note": "Kinderopvang"
  }
},
{
  "type": "node",
  "id": 2002469929,
  "lat": 51.0896417,
  "lon": 4.3669297,
  "tags": {
    "amenity": "school",
    "name": "Gemeentelijke Academie voor Muziek en Woord"
  }
},
{
  "type": "node",
  "id": 2162521615,
  "lat": 51.1329448,
  "lon": 4.3863527,
  "tags": {
    "addr:housenumber": "3",
    "addr:street": "Carillolei",
    "amenity": "school",
    "email": "info.aartselaar@academiehsn.be",
    "name": "Academie Muziek en Woord",
    "phone": "+32 3 887 93 31",
    "website": "https://www.academiehsn.be/"
  }
},
{
  "type": "node",
  "id": 2203286797,
  "lat": 51.0928987,
  "lon": 4.4995098,
  "tags": {
    "amenity": "school",
    "name": "Kleuter-en lagere school De Basis"
  }
},
{
  "type": "node",
  "id": 2203287964,
  "lat": 51.0922316,
  "lon": 4.4989841,
  "tags": {
    "amenity": "school",
    "name": "Sint-Norbertusinstituut"
  }
},
{
  "type": "node",
  "id": 2300254355,
  "lat": 51.0956493,
  "lon": 4.4993868,
  "tags": {
    "amenity": "school",
    "name": "Gemeentelijke School Duffel-West"
  }
},
{
  "type": "node",
  "id": 2325217736,
  "lat": 51.1564631,
  "lon": 4.4758554,
  "tags": {
    "amenity": "school",
    "name": "Kleuterschool",
    "operator": "Regina Pacis"
  }
},
{
  "type": "node",
  "id": 2515518923,
  "lat": 51.0957838,
  "lon": 4.4992636,
  "tags": {
    "amenity": "kindergarten",
    "name": "'t Kompas"
  }
},
{
  "type": "node",
  "id": 2515518927,
  "lat": 51.0958280,
  "lon": 4.4992185,
  "tags": {
    "amenity": "school",
    "name": "'t Kompas"
  }
},
{
  "type": "node",
  "id": 2820261501,
  "lat": 51.4622192,
  "lon": 5.1378851,
  "tags": {
    "addr:city": "Esbeek",
    "addr:housenumber": "8",
    "addr:postcode": "5085EG",
    "addr:street": "Dorpsstraat",
    "amenity": "school",
    "name": "Samenwijs Torenlei",
    "phone": "+31 13 516 9371",
    "source": "BAG",
    "source:date": "2014-03-24",
    "website": "https://www.stichtingsamenwijs.nl/torenlei"
  }
},
{
  "type": "node",
  "id": 2820945060,
  "lat": 51.4890705,
  "lon": 5.1420099,
  "tags": {
    "addr:city": "Hilvarenbeek",
    "addr:housenumber": "11",
    "addr:postcode": "5081XM",
    "addr:street": "Koningskruis",
    "amenity": "school",
    "name": "Basisschool De Doelakkers",
    "source": "BAG",
    "source:date": "2014-03-24",
    "website": "https://www.stichtingsamenwijs.nl/doelakkers/"
  }
},
{
  "type": "node",
  "id": 2821192350,
  "lat": 51.4896933,
  "lon": 5.1315748,
  "tags": {
    "addr:city": "Hilvarenbeek",
    "addr:housenumber": "38",
    "addr:postcode": "5081VH",
    "addr:street": "Schoolstraat",
    "amenity": "school",
    "isced:level": "0",
    "name": "Basisschool Starrebos",
    "operator": "Stichting Samenwijs",
    "source": "BAG",
    "source:date": "2014-03-24",
    "website": "https://www.stichtingsamenwijs.nl/starrebos"
  }
},
{
  "type": "node",
  "id": 2821347878,
  "lat": 51.5081728,
  "lon": 5.1584314,
  "tags": {
    "addr:city": "Biest-Houtakker",
    "addr:housenumber": "38",
    "addr:postcode": "5084HG",
    "addr:street": "Biestsestraat",
    "amenity": "school",
    "email": "info.vlinderakker@stichtingsamenwijs.nl",
    "phone": "+31 13 505 1400",
    "source": "BAG",
    "source:date": "2014-03-24",
    "website": "https://www.stichtingsamenwijs.nl/de-vlinderakker"
  }
},
{
  "type": "node",
  "id": 2823991680,
  "lat": 51.5807073,
  "lon": 5.2022981,
  "tags": {
    "addr:city": "Oisterwijk",
    "addr:housenumber": "1A",
    "addr:postcode": "5061LA",
    "addr:street": "Terburghtweg",
    "amenity": "school",
    "email": "info.detovervogel@stgboom.nl",
    "facebook": "https://www.facebook.com/tovervogel",
    "name": "Basisschool de Tovervogel",
    "phone": "+31 13 523 4236",
    "source": "BAG",
    "source:date": "2014-03-24",
    "website": "https://www.detovervogel.nl/"
  }
},
{
  "type": "node",
  "id": 2823993538,
  "lat": 51.5806021,
  "lon": 5.2019993,
  "tags": {
    "addr:city": "Oisterwijk",
    "addr:housenumber": "3",
    "addr:postcode": "5061XA",
    "addr:street": "Schoolstraat",
    "amenity": "kindergarten",
    "email": "regiomiddenbrabant@kinderopvanghumanitas.nl",
    "facebook": "https://www.facebook.com/TovernestFlapuit",
    "name": "Kinderdagverblijf Het Tovernest",
    "opening_hours": "Mo-Fr 07:30-18:30; Sa-Su closed",
    "phone": "+31 13 521 2750",
    "source": "BAG",
    "source:date": "2014-03-24",
    "website": "https://www.humankind.nl/"
  }
},
{
  "type": "node",
  "id": 2823993780,
  "lat": 51.5768758,
  "lon": 5.2256368,
  "tags": {
    "addr:city": "Oisterwijk",
    "addr:housenumber": "4",
    "addr:postcode": "5062SV",
    "addr:street": "Kievitsblekweg",
    "amenity": "school",
    "email": "AZC@bijkinderstad.nl",
    "name": "AZC school Oisterwijk",
    "phone": "+31 13 5234785",
    "source": "BAG",
    "source:date": "2014-03-24",
    "website": "https://azcschooloisterwijk.nl"
  }
},
{
  "type": "node",
  "id": 2824033873,
  "lat": 51.5432981,
  "lon": 5.1849825,
  "tags": {
    "addr:city": "Moergestel",
    "addr:housenumber": "1",
    "addr:postcode": "5066EB",
    "addr:street": "Bosstraat",
    "amenity": "school",
    "email": "obs.de.bienekebolders@opmaat-scholen.nl",
    "name": "O.B.S. de Bienekebolders",
    "phone": "+31 13 513 6228",
    "source": "BAG",
    "source:date": "2014-03-24",
    "website": "https://www.bienekebolders.nl"
  }
},
{
  "type": "node",
  "id": 2824037570,
  "lat": 51.5475687,
  "lon": 5.1817390,
  "tags": {
    "addr:city": "Moergestel",
    "addr:housenumber": "32",
    "addr:postcode": "5066AN",
    "addr:street": "Kloosterlaan",
    "amenity": "school",
    "email": "info.devonder@stgboom.nl",
    "name": "Bs De Vonder",
    "phone": "+31 13 711 2411",
    "source": "BAG",
    "source:date": "2014-03-24",
    "website": "https://www.bsdevonder.net/"
  }
},
{
  "type": "node",
  "id": 2824089224,
  "lat": 51.5823482,
  "lon": 5.1752170,
  "tags": {
    "addr:city": "Oisterwijk",
    "addr:housenumber": "1",
    "addr:postcode": "5061WB",
    "addr:street": "Lavendel",
    "amenity": "school",
    "email": "directie.denakker@stgboom.nl",
    "name": "Basisschool De Groene Parel",
    "operator": "Stichting BOOM",
    "phone": "+31 13 523 4346",
    "source": "BAG",
    "source:date": "2014-03-24",
    "website": "https://www.bsdegroeneparel.nl/"
  }
},
{
  "type": "node",
  "id": 2824090491,
  "lat": 51.5854739,
  "lon": 5.1755170,
  "tags": {
    "addr:city": "Oisterwijk",
    "addr:housenumber": "2",
    "addr:postcode": "5063EA",
    "addr:street": "Postelein",
    "amenity": "school",
    "name": "Basisschool de Nieuwe Linde",
    "source": "BAG",
    "source:date": "2014-03-24"
  }
},
{
  "type": "node",
  "id": 2824143278,
  "lat": 51.5738324,
  "lon": 5.1748067,
  "tags": {
    "addr:city": "Oisterwijk",
    "addr:housenumber": "59",
    "addr:postcode": "5061TB",
    "addr:street": "Willem de Zwijgerlaan",
    "amenity": "school",
    "email": "info.decoppele@stgboom.nl",
    "name": "Basisschool de Coppele",
    "phone": "+31 13 523 0828",
    "source": "BAG",
    "source:date": "2018-07-01",
    "website": "https://www.decoppele.nl/"
  }
},
{
  "type": "node",
  "id": 2824143416,
  "lat": 51.5737953,
  "lon": 5.1753205,
  "tags": {
    "addr:city": "Oisterwijk",
    "addr:housenumber": "61",
    "addr:postcode": "5061TB",
    "addr:street": "Willem de Zwijgerlaan",
    "amenity": "kindergarten",
    "email": "coppele@pszo.nl",
    "name": "BSO de Coppele",
    "opening_hours": "Mo-Fr 08:45-11:30",
    "phone": "+31 13 208 3620",
    "source": "BAG",
    "source:date": "2018-07-01",
    "website": "https://www.humankind.nl/vestigingen/oisterwijk/bso-coppele"
  }
},
{
  "type": "node",
  "id": 2825993913,
  "lat": 51.4643457,
  "lon": 5.2447049,
  "tags": {
    "addr:city": "Oost West en Middelbeers",
    "addr:housenumber": "1",
    "addr:postcode": "5091SC",
    "addr:street": "Sint Jorisstraat",
    "amenity": "school",
    "branch": "Middelbeers",
    "education": "school",
    "email": "devliertuin@skobos.nl",
    "grades": "1-8",
    "isced:level": "0;1",
    "name": "De Vliertuin",
    "official_name": "Kindcentrum de Vliertuin Onderwijs",
    "operator": "Skobos",
    "operator:website": "https://skobos.nl",
    "operator:wikidata": "Q137752771",
    "phone": "+31 13 514 60 88",
    "religion": "none",
    "school": "primary",
    "source": "BAG",
    "source:date": "2014-03-24",
    "website": "https://devliertuin-skobos.nl",
    "wikidata": "Q22754350"
  }
},
{
  "type": "node",
  "id": 2833894855,
  "lat": 51.5186778,
  "lon": 5.0538270,
  "tags": {
    "addr:city": "Goirle",
    "addr:housenumber": "4",
    "addr:postcode": "5051JP",
    "addr:street": "Tamboerstraat",
    "amenity": "school",
    "email": "kameleon@etuda.nl",
    "isced:level": "0;1",
    "name": "Kindcentrum Kamelot",
    "operator": "Etuda",
    "operator:website": "https://etuda.nl",
    "phone": "+31 13 5342263",
    "school": "primary",
    "source": "BAG",
    "source:date": "2016-10-03",
    "website": "https://www.kameleon-goirle.nl"
  }
},
{
  "type": "node",
  "id": 2837311860,
  "lat": 51.5263110,
  "lon": 5.0525290,
  "tags": {
    "addr:city": "Goirle",
    "addr:housenumber": "1",
    "addr:postcode": "5052BL",
    "addr:street": "Frankische Driehoek",
    "amenity": "school",
    "name": "Basisschool Open Hof",
    "source": "BAG",
    "source:date": "2014-03-24",
    "website": "https://openhof-goirle.nl"
  }
},
{
  "type": "node",
  "id": 2837363929,
  "lat": 51.5267211,
  "lon": 5.0782631,
  "tags": {
    "addr:city": "Goirle",
    "addr:housenumber": "137",
    "addr:postcode": "5051ML",
    "addr:street": "Guido Gezellelaan",
    "amenity": "school",
    "email": "schrijverke@edu-ley.nl",
    "name": "Openbare Basisschool 't Schrijverke",
    "phone": "+31 13 534 4455",
    "source": "BAG",
    "source:date": "2014-03-24",
    "website": "https://schrijverke.nl/"
  }
},
{
  "type": "node",
  "id": 2837372386,
  "lat": 51.5271036,
  "lon": 5.0684150,
  "tags": {
    "addr:city": "Goirle",
    "addr:housenumber": "43",
    "addr:postcode": "5051KR",
    "addr:street": "Grobbendonckpark",
    "amenity": "school",
    "name": "Basisschool De Regenboog",
    "phone": "+31 13 534 2657",
    "source": "BAG",
    "source:date": "2014-03-24",
    "website": "https://www.deregenboog-goirle.nl/"
  }
},
{
  "type": "node",
  "id": 2837373456,
  "lat": 51.5304644,
  "lon": 5.0737980,
  "tags": {
    "addr:city": "Goirle",
    "addr:housenumber": "54",
    "addr:postcode": "5053EJ",
    "addr:street": "Waterput",
    "amenity": "school",
    "name": "Rooms Katholieke Basisschool De Bron",
    "phone": "+31 13 534 6818",
    "source": "BAG",
    "source:date": "2014-03-24",
    "website": "https://debron-goirle.nl/"
  }
},
{
  "type": "node",
  "id": 2840205099,
  "lat": 51.5880710,
  "lon": 5.1501976,
  "tags": {
    "addr:city": "Berkel-Enschot",
    "addr:housenumber": "32",
    "addr:postcode": "5056XN",
    "addr:street": "Hazelaarlaan",
    "amenity": "school",
    "email": "info.berkeloo@mondiaen.nl",
    "isced:level": "0;1",
    "name": "Berkeloo",
    "operator": "Mondiaen",
    "operator:website": "https://mondiaen.nl",
    "operator:wikidata": "Q136735453",
    "phone": "+31 13 5331144",
    "school": "primary",
    "source": "BAG",
    "source:date": "2014-03-24",
    "website": "https://berkeloo.nl/"
  }
},
{
  "type": "node",
  "id": 2840744115,
  "lat": 51.5403385,
  "lon": 5.1019957,
  "tags": {
    "addr:city": "Tilburg",
    "addr:housenumber": "10",
    "addr:postcode": "5022KB",
    "addr:street": "Professor van Buchemlaan",
    "amenity": "kindergarten",
    "name": "Sterre Kinderopvang Leijpark",
    "source": "BAG",
    "source:date": "2014-05-01",
    "website": "https://www.sterrekinderopvang.nl/locaties/leijpark"
  }
},
{
  "type": "node",
  "id": 2840802538,
  "lat": 51.5407890,
  "lon": 5.0981188,
  "tags": {
    "addr:city": "Tilburg",
    "addr:housenumber": "15",
    "addr:postcode": "5022EM",
    "addr:street": "Oude Hilvarenbeekseweg",
    "amenity": "school",
    "name": "Kindcentrum Don Sarto",
    "operator": "Xpect013",
    "source": "BAG",
    "source:date": "2014-05-01",
    "website": "https://www.xpect013.nl/don-sarto"
  }
},
{
  "type": "node",
  "id": 2841723896,
  "lat": 51.5753306,
  "lon": 5.1301584,
  "tags": {
    "addr:city": "Berkel-Enschot",
    "addr:housenumber": "2",
    "addr:postcode": "5056KK",
    "addr:street": "Schoolmeesterstraat",
    "amenity": "school",
    "email": "info.caecilia@mondiaen.nl",
    "isced:level": "0;1",
    "name": "Basisschool St. Caecilia",
    "operator": "Mondiaen",
    "operator:website": "https://mondiaen.nl",
    "operator:wikidata": "Q136735453",
    "phone": "+31 13 5331360",
    "school": "primary",
    "source": "BAG",
    "source:date": "2014-05-07",
    "website": "https://bs-caecilia.nl"
  }
},
{
  "type": "node",
  "id": 2847003921,
  "lat": 51.5545720,
  "lon": 5.0554662,
  "tags": {
    "addr:city": "Tilburg",
    "addr:housenumber": "30",
    "addr:postcode": "5037MH",
    "addr:street": "Burgemeester Rauppstraat",
    "amenity": "kindergarten",
    "education": "kindergarten",
    "name": "Burgemeester",
    "operator": "Xpect013",
    "source": "BAG",
    "source:date": "2014-05-01",
    "website": "https://www.xpect013.nl/burgemeester"
  }
},
{
  "type": "node",
  "id": 2847047340,
  "lat": 51.5528690,
  "lon": 5.0535438,
  "tags": {
    "addr:city": "Tilburg",
    "addr:housenumber": "77",
    "addr:postcode": "5037MT",
    "addr:street": "Zouavenlaan",
    "amenity": "school",
    "name": "Kindcentrum Christoffel",
    "operator": "xpect013",
    "source": "BAG",
    "source:date": "2014-05-01",
    "website": "https://www.xpect013.nl/christoffel"
  }
},
{
  "type": "node",
  "id": 2847210624,
  "lat": 51.5626636,
  "lon": 5.0559319,
  "tags": {
    "addr:city": "Tilburg",
    "addr:housenumber": "5",
    "addr:postcode": "5037AD",
    "addr:street": "Professor Verbernelaan",
    "amenity": "school",
    "name": "Jan Ligthartschool",
    "source": "BAG",
    "source:date": "2014-05-01"
  }
},
{
  "type": "node",
  "id": 2847582090,
  "lat": 51.5828326,
  "lon": 5.0996138,
  "tags": {
    "addr:city": "Tilburg",
    "addr:housenumber": "30",
    "addr:postcode": "5012HB",
    "addr:street": "Vermeulenstraat",
    "amenity": "school",
    "name": "'t Hazenest",
    "source": "BAG",
    "source:date": "2014-05-07"
  }
},
{
  "type": "node",
  "id": 2847833545,
  "lat": 51.5911864,
  "lon": 5.0845203,
  "tags": {
    "addr:city": "Tilburg",
    "addr:housenumber": "131",
    "addr:postcode": "5011JB",
    "addr:street": "Bartokstraat",
    "amenity": "school",
    "education": "school",
    "name": "Basisschool de Vlashof",
    "operator": "Mondiaenschool",
    "source": "BAG",
    "source:date": "2014-05-07",
    "website": "https://vlashof.nl/"
  }
},
{
  "type": "node",
  "id": 2848980450,
  "lat": 51.5709623,
  "lon": 5.0907215,
  "tags": {
    "addr:city": "Tilburg",
    "addr:housenumber": "173",
    "addr:postcode": "5014NK",
    "addr:street": "Hoefstraat",
    "amenity": "school",
    "name": "Basisschool de Cocon",
    "source": "BAG",
    "source:date": "2014-05-07"
  }
},
{
  "type": "node",
  "id": 2850602503,
  "lat": 51.5723412,
  "lon": 5.0620418,
  "tags": {
    "addr:city": "Tilburg",
    "addr:housenumber": "20",
    "addr:postcode": "5042EH",
    "addr:street": "Reitse Hoevenstraat",
    "amenity": "school",
    "name": "Kindcentrum Hubertus",
    "operator": "Xpect013",
    "source": "BAG",
    "source:date": "2014-05-07",
    "website": "https://www.xpect013.nl/hubertus"
  }
},
{
  "type": "node",
  "id": 2850941573,
  "lat": 51.5646478,
  "lon": 5.0861818,
  "tags": {
    "addr:city": "Tilburg",
    "addr:housenumber": "38",
    "addr:postcode": "5041AR",
    "addr:street": "Schaepmanstraat",
    "amenity": "school",
    "name": "De Stappen",
    "source": "BAG",
    "source:date": "2014-05-07",
    "website": "https://www.xpect013.nl/de-stappen"
  }
},
{
  "type": "node",
  "id": 2864471701,
  "lat": 52.4171674,
  "lon": 5.8154833,
  "tags": {
    "addr:city": "Doornspijk",
    "addr:housenumber": "75",
    "addr:postcode": "8085AM",
    "addr:street": "Oude Kerkweg",
    "amenity": "school",
    "denomination": "reformed",
    "name": "Ds. Baxschool",
    "source": "BAG",
    "source:date": "2014-05-07",
    "website": "https://www.dsbaxschool.nl/"
  }
},
{
  "type": "node",
  "id": 2864506042,
  "lat": 52.4297078,
  "lon": 5.8393290,
  "tags": {
    "addr:city": "Doornspijk",
    "addr:housenumber": "50",
    "addr:postcode": "8085PH",
    "addr:street": "Oude Harderwijkerweg",
    "amenity": "school",
    "denomination": "protestant",
    "name": "Mattanjaschool",
    "religion": "christian",
    "source": "BAG",
    "source:date": "2014-05-07",
    "website": "https://www.mattanja.nl/"
  }
},
{
  "type": "node",
  "id": 2875580158,
  "lat": 51.0467743,
  "lon": 4.4207813,
  "tags": {
    "amenity": "kindergarten",
    "description": "Kinderopvang",
    "name": "Ukkepuk",
    "phone": "+32 497 29 82 94"
  }
},
{
  "type": "node",
  "id": 2877885395,
  "lat": 52.3820827,
  "lon": 5.8043772,
  "tags": {
    "addr:city": "Nunspeet",
    "addr:housenumber": "147",
    "addr:postcode": "8072BW",
    "addr:street": "Oosterlaan",
    "amenity": "school",
    "denomination": "protestant",
    "description": "speciaal basisonderwijs (SBO)",
    "education": "school",
    "email": "arend@educare.nl",
    "isced:level": "0;1",
    "name": "De Arend",
    "official_name": "SBO De Arend",
    "operator": "EduCare",
    "operator:website": "https://www.educare.nl",
    "operator:wikidata": "Q139323572",
    "phone": "+31 341 252570",
    "religion": "christian",
    "school": "primary",
    "school:special_needs": "only",
    "source": "BAG",
    "source:date": "2014-05-24",
    "website": "https://arend.educare.nl"
  }
},
{
  "type": "node",
  "id": 2877886112,
  "lat": 52.3827015,
  "lon": 5.7895112,
  "tags": {
    "addr:city": "Nunspeet",
    "addr:housenumber": "184",
    "addr:postcode": "8071AK",
    "addr:street": "F.A. Molijnlaan",
    "amenity": "school",
    "name": "Nuborgh College Veluvine",
    "source": "BAG",
    "source:date": "2014-05-24"
  }
},
{
  "type": "node",
  "id": 2932643952,
  "lat": 51.0751499,
  "lon": 4.4219898,
  "tags": {
    "amenity": "kindergarten",
    "name": "Villa Kakelbont",
    "note": "Buitenschoolse Kinderopvang"
  }
},
{
  "type": "node",
  "id": 3066482539,
  "lat": 51.1347432,
  "lon": 4.3415452,
  "tags": {
    "amenity": "kindergarten",
    "name": "Ukkenpukken Hofke",
    "note": "Kinderopvang"
  }
},
{
  "type": "node",
  "id": 3130995246,
  "lat": 51.1306306,
  "lon": 4.3358572,
  "tags": {
    "amenity": "kindergarten",
    "name": "Kiekeboe",
    "note": "Kinderdagverblijf",
    "phone": "+32 486 50 13 01"
  }
},
{
  "type": "node",
  "id": 3217250469,
  "lat": 51.1521824,
  "lon": 4.4728105,
  "tags": {
    "amenity": "kindergarten",
    "contact:facebook": "https://www.facebook.com/pages/De-Rammelaar-Hove/370815689725176",
    "name": "De Rammelaar"
  }
},
{
  "type": "node",
  "id": 3224741809,
  "lat": 51.1437697,
  "lon": 4.4715969,
  "tags": {
    "amenity": "kindergarten",
    "name": "Kinderdagverblijf Kwitje",
    "phone": "+32 3 458 77 57"
  }
},
{
  "type": "node",
  "id": 3952368594,
  "lat": 51.1263213,
  "lon": 4.4848118,
  "tags": {
    "amenity": "kindergarten",
    "email": "deprinsvanlint@hotmail.com",
    "name": "De Prins van Lint",
    "phone": "+32 477 71 19 91"
  }
},
{
  "type": "node",
  "id": 3956137057,
  "lat": 51.1290253,
  "lon": 4.4973098,
  "tags": {
    "addr:housenumber": "44",
    "addr:street": "Statiestraat",
    "amenity": "kindergarten",
    "kindergarten:BE": "kinderdagverblijf",
    "name": "De Speeltrein",
    "phone": "+32 3 455 62 44"
  }
},
{
  "type": "node",
  "id": 3956137059,
  "lat": 51.1274725,
  "lon": 4.4981663,
  "tags": {
    "amenity": "kindergarten",
    "kindergarten:BE": "kinderdagverblijf",
    "name": "Poekie's Place"
  }
},
{
  "type": "node",
  "id": 4384246526,
  "lat": 51.4797944,
  "lon": 5.1372103,
  "tags": {
    "addr:city": "Hilvarenbeek",
    "addr:housenumber": "1",
    "addr:postcode": "5081ER",
    "addr:street": "Wagenmaker",
    "amenity": "school",
    "isced:level": "0;1",
    "name": "Kindcentrum De Driehoek",
    "school": "primary",
    "source": "BAG",
    "source:date": "2016-09-04",
    "website": "https://kindcentrumdriehoek.nl"
  }
},
{
  "type": "node",
  "id": 4416821585,
  "lat": 51.5403344,
  "lon": 5.0811808,
  "tags": {
    "addr:city": "Tilburg",
    "addr:housenumber": "185",
    "addr:postcode": "5022DD",
    "addr:street": "Stappegoorweg",
    "amenity": "school",
    "name": "Campus 013",
    "source": "BAG",
    "source:date": "2016-09-24",
    "website": "https://www.campus013.nl"
  }
},
{
  "type": "node",
  "id": 4523765617,
  "lat": 51.5968728,
  "lon": 5.2256996,
  "tags": {
    "addr:city": "Haaren",
    "addr:housenumber": "8",
    "addr:postcode": "5076AM",
    "addr:street": "Sportlaantje",
    "amenity": "school",
    "education": "school",
    "email": "info@dehasselbraam.nl",
    "isced:level": "0;1",
    "name": "De Hasselbraam",
    "official_name": "Openbare basisschool de Hasselbraam",
    "operator": "Stroomm",
    "operator:website": "https://stroomm.nl",
    "operator:wikidata": "Q138806638",
    "phone": "+31 411 622 839",
    "school": "primary",
    "source": "BAG",
    "source:date": "2016-11-26",
    "website": "https://www.dehasselbraam.nl"
  }
},
{
  "type": "node",
  "id": 4547583902,
  "lat": 51.0429040,
  "lon": 4.3246904,
  "tags": {
    "amenity": "kindergarten",
    "name": "De Sloeber"
  }
},
{
  "type": "node",
  "id": 4921324824,
  "lat": 51.1526128,
  "lon": 4.3900080,
  "tags": {
    "amenity": "kindergarten"
  }
},
{
  "type": "node",
  "id": 5215036841,
  "lat": 51.5477932,
  "lon": 5.1818241,
  "tags": {
    "addr:city": "Moergestel",
    "addr:housenumber": "26",
    "addr:postcode": "5066AN",
    "addr:street": "Kloosterlaan",
    "amenity": "school",
    "email": "obs.de.bienekebolders@opmaat-scholen.nl",
    "name": "OBS De Bienkebolders",
    "phone": "+31 13 513 6228",
    "source": "BAG",
    "source:date": "2014-03-24",
    "website": "https://www.bienekebolders.nl"
  }
},
{
  "type": "node",
  "id": 5291946067,
  "lat": 51.4746405,
  "lon": 5.1775556,
  "tags": {
    "addr:city": "Diessen",
    "addr:housenumber": "8",
    "addr:postcode": "5087BN",
    "addr:street": "Molenstraat",
    "amenity": "school",
    "email": "info.willibrordus@stichtingsamenwijs.nl",
    "phone": "+31 13 504 6165",
    "source": "BAG",
    "source:date": "2014-03-24",
    "website": "https://www.stichtingsamenwijs.nl/willibrordus"
  }
},
{
  "type": "node",
  "id": 5585850768,
  "lat": 51.5243751,
  "lon": 5.0247548,
  "tags": {
    "addr:city": "Riel",
    "addr:housenumber": "3",
    "addr:postcode": "5133BC",
    "addr:street": "Goirleseweg",
    "amenity": "school",
    "name": "de Vonder",
    "phone": "+31 13 518 1590",
    "source": "BAG",
    "source:date": "2018-04-29",
    "website": "https://www.kbs-vonder.nl/"
  }
},
{
  "type": "node",
  "id": 6041493367,
  "lat": 51.1018882,
  "lon": 4.4100599,
  "tags": {
    "amenity": "school",
    "name": "Gemeentelijke Kleuterschool Eikenlaar",
    "operator": "Gemeente",
    "school": "kindergarten",
    "website": "https://gemeentelijkebasisschooleikenlaar.be/kleuterschool.html"
  }
},
{
  "type": "node",
  "id": 7325228153,
  "lat": 51.5696820,
  "lon": 5.0646315,
  "tags": {
    "addr:city": "Tilburg",
    "addr:housenumber": "1",
    "addr:postcode": "5042EK",
    "addr:street": "Doctor Ahausstraat",
    "amenity": "school",
    "denomination": "catholic",
    "name": "Toerisme en Vrije Tijd",
    "operator": "De Rooi Pannen",
    "operator:type": "public"
  }
},
{
  "type": "node",
  "id": 8517815474,
  "lat": 51.5759688,
  "lon": 5.2272820,
  "tags": {
    "addr:city": "Oisterwijk",
    "addr:housenumber": "4",
    "addr:postcode": "5062SV",
    "addr:street": "Kievitsblekweg",
    "amenity": "school",
    "description": "EOA/ISK",
    "education": "school",
    "email": "eoa-oisterwijk@2college.nl",
    "isced:level": "2;3",
    "name": "2College EOA Oisterwijk",
    "operator": "Ons Middelbaar Onderwijs",
    "operator:subgroup": "2College",
    "operator:website": "https://www.omo.nl",
    "operator:wikidata": "Q4693918",
    "operator:wikipedia": "nl:Ons Middelbaar Onderwijs",
    "phone": "+31 88 023 2650",
    "school": "secondary",
    "website": "https://www.2college.nl/eoa-oisterwijk"
  }
},
{
  "type": "node",
  "id": 8740330388,
  "lat": 51.5599239,
  "lon": 5.0882740,
  "tags": {
    "addr:city": "Tilburg",
    "addr:housenumber": "21m",
    "addr:postcode": "5038CB",
    "addr:street": "Spoorlaan",
    "amenity": "school",
    "name": "WerkvloerTaal",
    "source": "BAG",
    "source:date": "2021-05-17",
    "website": "https://werkvloertaal.nl/"
  }
},
{
  "type": "node",
  "id": 9004503030,
  "lat": 51.5421358,
  "lon": 5.1033665,
  "tags": {
    "amenity": "school",
    "name": "Onderwijscentrum Leijpark",
    "website": "https://ocleijpark.nl"
  }
},
{
  "type": "node",
  "id": 10279080609,
  "lat": 51.1512314,
  "lon": 4.4611837,
  "tags": {
    "addr:postcode": "2650",
    "amenity": "school",
    "email": "dacdrummer@gmail.com",
    "name": "DACdrummer Drums en Percussie school",
    "website": "https://www.damianalvarezcastro.com"
  }
},
{
  "type": "node",
  "id": 10293916599,
  "lat": 51.5589840,
  "lon": 5.0771291,
  "tags": {
    "addr:city": "Tilburg",
    "addr:housenumber": "14a",
    "addr:postcode": "5038HD",
    "addr:street": "Elzenstraat",
    "amenity": "school",
    "name": "Montessoribasisschool De Elzen",
    "phone": "+31 13 543 5566",
    "website": "https://de-elzen.com/"
  }
},
{
  "type": "node",
  "id": 10594109927,
  "lat": 51.5260767,
  "lon": 5.0523196,
  "tags": {
    "addr:city": "Goirle",
    "addr:housenumber": "2a",
    "addr:postcode": "5052BL",
    "addr:street": "Frankische Driehoek",
    "amenity": "school",
    "name": "Openbare Basisschool Den Bongerd",
    "website": "https://www.obsdenbongerd.nl/"
  }
},
{
  "type": "node",
  "id": 10880331227,
  "lat": 51.1492927,
  "lon": 4.3008041,
  "tags": {
    "addr:housenumber": "55A",
    "addr:street": "Kruibekestraat",
    "amenity": "school",
    "name": "Sint-Jorisinstituut",
    "school": "secondary",
    "website": "https://www.sintjorisbazel.be/"
  }
},
{
  "type": "node",
  "id": 11005247675,
  "lat": 51.5649154,
  "lon": 5.1901286,
  "tags": {
    "amenity": "school",
    "capacity": "80",
    "isced": "1",
    "max_age": "12",
    "min_age": "4",
    "name": "P.I. School Hondsberg",
    "operator": "Saltho Onderwijs",
    "pedagogy": "Speciaal onderwijs (SO)",
    "website": "https://www.koraal.nl/over-koraal/locaties/p-i-school-hondsberg"
  }
},
{
  "type": "node",
  "id": 11081735041,
  "lat": 51.5318596,
  "lon": 5.0672483,
  "tags": {
    "amenity": "school",
    "capacity": "300",
    "denomination": "catholic",
    "isced": "24",
    "max_age": "18",
    "min_age": "12",
    "name": "School voor Voortgezet Speciaal Onderwijs De Keyzer",
    "operator": "Biezonderwijs",
    "pedagogy": "Voortgezet speciaal onderwijs (VSO)",
    "religion": "christian",
    "website": "https://www.sgdekeyzer.nl/"
  }
},
{
  "type": "node",
  "id": 11137276696,
  "lat": 51.5766678,
  "lon": 5.0994636,
  "tags": {
    "addr:city": "Tilburg",
    "addr:housenumber": "8",
    "addr:postcode": "5012AR",
    "addr:street": "Gershwinstraat",
    "amenity": "school",
    "education": "school",
    "email": "waldorfstroom@2college.nl",
    "isced:level": "2",
    "name": "2College Waldorfstroom",
    "operator": "Ons Middelbaar Onderwijs",
    "operator:subgroup": "2College",
    "operator:website": "https://www.omo.nl",
    "operator:wikidata": "Q4693918",
    "operator:wikipedia": "nl:Ons Middelbaar Onderwijs",
    "phone": "+31 88 023 2563",
    "school": "secondary",
    "website": "https://www.2college.nl/waldorfstroom/"
  }
},
{
  "type": "node",
  "id": 11771943564,
  "lat": 51.0548521,
  "lon": 4.4457446,
  "tags": {
    "amenity": "school",
    "name": "Buderus Academy"
  }
},
{
  "type": "node",
  "id": 12290693428,
  "lat": 52.4567906,
  "lon": 5.6916744,
  "tags": {
    "addr:city": "Biddinghuizen",
    "addr:housenumber": "1",
    "addr:postcode": "8256BK",
    "addr:street": "Akkerhof",
    "amenity": "school",
    "denomination": "roman_catholic",
    "education": "school",
    "email": "directie@kbswingerd.nl",
    "isced:level": "0;1",
    "name": "De Wingerd",
    "official_name": "Katholieke Basisschool De Wingerd",
    "operator": "SKO",
    "operator:website": "https://www.sko-ovo.nl",
    "operator:wikidata": "Q122033802",
    "phone": "+31 321 331329",
    "religion": "christian",
    "school": "primary",
    "website": "https://kbsdewingerd.nl"
  }
},
{
  "type": "node",
  "id": 12290693429,
  "lat": 52.4565455,
  "lon": 5.6911781,
  "tags": {
    "addr:city": "Biddinghuizen",
    "addr:housenumber": "1",
    "addr:postcode": "8256BK",
    "addr:street": "Akkerhof",
    "amenity": "school",
    "denomination": "protestant",
    "education": "school",
    "email": "info.tamarisk@flevion.nl",
    "isced:level": "0;1",
    "name": "De Tamarisk",
    "operator": "Flevion",
    "operator:website": "https://www.flevion.nl",
    "operator:wikidata": "Q139038834",
    "phone": "+31 321 331 766",
    "religion": "christian",
    "school": "primary",
    "website": "https://www.detamarisk.nl"
  }
},
{
  "type": "node",
  "id": 12290735243,
  "lat": 52.4566648,
  "lon": 5.6914115,
  "tags": {
    "addr:city": "Biddinghuizen",
    "addr:housenumber": "1",
    "addr:postcode": "8256BK",
    "addr:street": "Akkerhof",
    "amenity": "school",
    "education": "school",
    "email": "directie.schatkamer@flevion.nl",
    "isced:level": "0;1",
    "name": "De Schatkamer",
    "official_name": "Daltonschool De Schatkamer",
    "operator": "Flevion",
    "operator:website": "https://www.flevion.nl",
    "operator:wikidata": "Q139038834",
    "pedagogy": "dalton",
    "phone": "+31 321 331502",
    "school": "primary",
    "website": "https://daltonschooldeschatkamer.nl"
  }
},
{
  "type": "node",
  "id": 12477986154,
  "lat": 51.1292006,
  "lon": 4.3863370,
  "tags": {
    "amenity": "school",
    "contact:facebook": "https://www.facebook.com/vrobavzw",
    "contact:instagram": "https://www.instagram.com/go_basisschool_deblokkendoos/",
    "email": "info@bsdeblokkendoos.be",
    "name": "De Blokkendoos",
    "official_name": "GO! Basisschool De Blokkendoos",
    "phone": "+32 3 887 66 91",
    "school": "kindergarten;primary",
    "website": "https://bsdeblokkendoos.be/"
  }
},
{
  "type": "node",
  "id": 12477986155,
  "lat": 51.1286865,
  "lon": 4.3860773,
  "tags": {
    "amenity": "school",
    "branch": "Aartselaar",
    "name": "Den Brandt",
    "official_name": "GO! middenschool Den Brandt Boom",
    "phone": "+32 3 888 15 99",
    "school": "secondary",
    "website": "https://msdenbrandt.be/"
  }
},
{
  "type": "node",
  "id": 12496004237,
  "lat": 51.5970918,
  "lon": 5.2254769,
  "tags": {
    "addr:city": "Haaren",
    "addr:housenumber": "8",
    "addr:postcode": "5076AM",
    "addr:street": "Sportlaantje",
    "amenity": "school",
    "education": "school",
    "email": "deklimop@cadansprimair.nl",
    "isced:level": "0;1",
    "name": "De Klim-op",
    "official_name": "Basisschool de Klim-op",
    "operator": "Cadans Primair",
    "operator:website": "https://www.cadansprimair.nl",
    "operator:wikidata": "Q138806530",
    "phone": "+31 411 621 209",
    "school": "primary",
    "website": "https://www.de-klim-op.nl"
  }
},
{
  "type": "node",
  "id": 13355014701,
  "lat": 51.5772446,
  "lon": 5.0598371,
  "tags": {
    "addr:city": "Tilburg",
    "addr:housenumber": "5",
    "addr:postcode": "5042AD",
    "addr:street": "Dr. Deelenlaan",
    "amenity": "hospital",
    "healthcare": "hospital",
    "name": "ETZ TweeSteden ziekenhuis",
    "source": "BAG",
    "source:date": "2014-05-07",
    "website": "https://www.etz.nl/"
  }
},
{
  "type": "node",
  "id": 13440373891,
  "lat": 51.1539833,
  "lon": 4.3941692,
  "tags": {
    "after_school": "yes",
    "amenity": "kindergarten",
    "email": "wonderwereld@helan.be",
    "max_age": "12",
    "min_age": "2.5",
    "name": "Wonderwareld",
    "opening_hours": "Mo-Fr 07:00-18:00",
    "operator": "Helan Kinderopvang",
    "phone": "+32 3 547 08 00",
    "website": "https://www.helan.be/nl/waar-vind-je-ons/kinderopvang-wonderwereld-1160/"
  }
},
{
  "type": "node",
  "id": 13730392830,
  "lat": 52.3821875,
  "lon": 5.8043404,
  "tags": {
    "addr:city": "Nunspeet",
    "addr:housenumber": "147",
    "addr:postcode": "8072BW",
    "addr:street": "Oosterlaan",
    "amenity": "school",
    "denomination": "protestant",
    "description": "ZML-school (zeer moeilijk lerenden)",
    "education": "school",
    "email": "wingerd@educare.nl",
    "isced:level": "0-2",
    "name": "De Wingerd",
    "official_name": "ZML De Wingerd",
    "operator": "EduCare",
    "operator:website": "https://www.educare.nl",
    "operator:wikidata": "Q139323572",
    "phone": "+31 341 253211",
    "religion": "christian",
    "school": "primary;secondary",
    "school:special_needs": "only",
    "website": "https://wingerd.educare.nl"
  }
},
{
  "type": "way",
  "id": 23432531,
  "bounds": {
    "minlat": 51.1282940,
    "minlon": 4.4324422,
    "maxlat": 51.1303853,
    "maxlon": 4.4355469
  },
  "geometry": [
    { "lat": 51.1295559, "lon": 4.4333021 },
    { "lat": 51.1291114, "lon": 4.4324422 },
    { "lat": 51.1290206, "lon": 4.4325305 },
    { "lat": 51.1282940, "lon": 4.4333923 },
    { "lat": 51.1286993, "lon": 4.4341158 },
    { "lat": 51.1292150, "lon": 4.4348605 },
    { "lat": 51.1297113, "lon": 4.4354412 },
    { "lat": 51.1298760, "lon": 4.4355469 },
    { "lat": 51.1303853, "lon": 4.4349471 },
    { "lat": 51.1303823, "lon": 4.4349019 },
    { "lat": 51.1300702, "lon": 4.4342473 },
    { "lat": 51.1296300, "lon": 4.4334599 },
    { "lat": 51.1295559, "lon": 4.4333021 }
  ],
  "tags": {
    "addr:city": "Kontich",
    "addr:country": "BE",
    "addr:housenumber": "1",
    "addr:postcode": "2550",
    "addr:street": "Pierstraat",
    "amenity": "school",
    "name": "Sint-Ritacollege",
    "website": "https://www.ritacollege.be/",
    "wikipedia": "nl:Sint-Ritacollege"
  }
},
{
  "type": "way",
  "id": 23436994,
  "bounds": {
    "minlat": 51.1553501,
    "minlon": 4.4715737,
    "maxlat": 51.1568339,
    "maxlon": 4.4765734
  },
  "geometry": [
    { "lat": 51.1563930, "lon": 4.4730782 },
    { "lat": 51.1564385, "lon": 4.4730527 },
    { "lat": 51.1565755, "lon": 4.4730056 },
    { "lat": 51.1566193, "lon": 4.4728140 },
    { "lat": 51.1565019, "lon": 4.4716559 },
    { "lat": 51.1561548, "lon": 4.4715737 },
    { "lat": 51.1561162, "lon": 4.4715962 },
    { "lat": 51.1561321, "lon": 4.4718891 },
    { "lat": 51.1562601, "lon": 4.4727274 },
    { "lat": 51.1563056, "lon": 4.4731422 },
    { "lat": 51.1562171, "lon": 4.4731735 },
    { "lat": 51.1558318, "lon": 4.4733100 },
    { "lat": 51.1558493, "lon": 4.4734609 },
    { "lat": 51.1560605, "lon": 4.4748763 },
    { "lat": 51.1555978, "lon": 4.4749780 },
    { "lat": 51.1555890, "lon": 4.4749732 },
    { "lat": 51.1555962, "lon": 4.4750061 },
    { "lat": 51.1556043, "lon": 4.4750004 },
    { "lat": 51.1558244, "lon": 4.4759072 },
    { "lat": 51.1558481, "lon": 4.4760406 },
    { "lat": 51.1558630, "lon": 4.4760950 },
    { "lat": 51.1558851, "lon": 4.4761900 },
    { "lat": 51.1553501, "lon": 4.4765568 },
    { "lat": 51.1553538, "lon": 4.4765734 },
    { "lat": 51.1558246, "lon": 4.4764430 },
    { "lat": 51.1558772, "lon": 4.4764203 },
    { "lat": 51.1560562, "lon": 4.4763718 },
    { "lat": 51.1561473, "lon": 4.4763455 },
    { "lat": 51.1562942, "lon": 4.4763011 },
    { "lat": 51.1563827, "lon": 4.4762722 },
    { "lat": 51.1563207, "lon": 4.4755714 },
    { "lat": 51.1565809, "lon": 4.4754927 },
    { "lat": 51.1567590, "lon": 4.4754388 },
    { "lat": 51.1568339, "lon": 4.4752211 },
    { "lat": 51.1568008, "lon": 4.4750007 },
    { "lat": 51.1568298, "lon": 4.4749961 },
    { "lat": 51.1568268, "lon": 4.4747147 },
    { "lat": 51.1566168, "lon": 4.4747603 },
    { "lat": 51.1563936, "lon": 4.4732473 },
    { "lat": 51.1563930, "lon": 4.4730782 }
  ],
  "tags": {
    "addr:city": "Hove",
    "addr:country": "BE",
    "addr:housenumber": "87",
    "addr:postcode": "2540",
    "addr:street": "Boechoutsesteenweg",
    "addr:unit": "a",
    "amenity": "school",
    "denomination": "catholic",
    "name": "Regina Pacis Hove",
    "religion": "christian",
    "website": "https://www.regpacho.be"
  }
},
{
  "type": "way",
  "id": 23436995,
  "bounds": {
    "minlat": 51.1521939,
    "minlon": 4.4724661,
    "maxlat": 51.1532632,
    "maxlon": 4.4742434
  },
  "geometry": [
    { "lat": 51.1521939, "lon": 4.4729301 },
    { "lat": 51.1522712, "lon": 4.4732180 },
    { "lat": 51.1522041, "lon": 4.4732563 },
    { "lat": 51.1524574, "lon": 4.4742434 },
    { "lat": 51.1527634, "lon": 4.4741536 },
    { "lat": 51.1532632, "lon": 4.4739252 },
    { "lat": 51.1529885, "lon": 4.4724661 },
    { "lat": 51.1528315, "lon": 4.4725022 },
    { "lat": 51.1525516, "lon": 4.4725928 },
    { "lat": 51.1523796, "lon": 4.4727002 },
    { "lat": 51.1524014, "lon": 4.4728092 },
    { "lat": 51.1521939, "lon": 4.4729301 }
  ],
  "tags": {
    "addr:city": "Hove",
    "addr:country": "BE",
    "addr:housenumber": "19,21",
    "addr:postcode": "2540",
    "addr:street": "Onderwijsstraat",
    "alt_name": "Albrecht Rodenbachschool",
    "amenity": "school",
    "name": "Rodenbach",
    "start_date": "1931",
    "website": "https://www.rodenbachschool.be/"
  }
},
{
  "type": "way",
  "id": 23449973,
  "bounds": {
    "minlat": 51.1358622,
    "minlon": 4.4426853,
    "maxlat": 51.1366337,
    "maxlon": 4.4438632
  },
  "geometry": [
    { "lat": 51.1366337, "lon": 4.4435687 },
    { "lat": 51.1362797, "lon": 4.4428206 },
    { "lat": 51.1361412, "lon": 4.4426853 },
    { "lat": 51.1358622, "lon": 4.4432715 },
    { "lat": 51.1364142, "lon": 4.4438632 },
    { "lat": 51.1366337, "lon": 4.4435687 }
  ],
  "tags": {
    "addr:city": "Kontich",
    "addr:country": "BE",
    "addr:housenumber": "32",
    "addr:postcode": "2550",
    "addr:street": "Molenstraat",
    "amenity": "school",
    "name": "A-HA! school"
  }
},
{
  "type": "way",
  "id": 25201371,
  "bounds": {
    "minlat": 51.1288954,
    "minlon": 4.4418702,
    "maxlat": 51.1302109,
    "maxlon": 4.4438951
  },
  "geometry": [
    { "lat": 51.1295006, "lon": 4.4438951 },
    { "lat": 51.1289366, "lon": 4.4432347 },
    { "lat": 51.1288954, "lon": 4.4432007 },
    { "lat": 51.1289596, "lon": 4.4427546 },
    { "lat": 51.1296596, "lon": 4.4418702 },
    { "lat": 51.1302109, "lon": 4.4424613 },
    { "lat": 51.1299934, "lon": 4.4429209 },
    { "lat": 51.1295006, "lon": 4.4438951 }
  ],
  "tags": {
    "addr:city": "Kontich",
    "addr:country": "BE",
    "addr:housenumber": "42",
    "addr:postcode": "2550",
    "addr:street": "Kruisschanslei",
    "amenity": "school",
    "name": "De Schans - Gemeenschapsonderwijs",
    "website": "https://www.deschans-kontich.be/",
    "wheelchair": "no"
  }
},
{
  "type": "way",
  "id": 26500447,
  "bounds": {
    "minlat": 51.0952400,
    "minlon": 4.3727598,
    "maxlat": 51.0965522,
    "maxlon": 4.3747178
  },
  "geometry": [
    { "lat": 51.0959205, "lon": 4.3727598 },
    { "lat": 51.0965522, "lon": 4.3739775 },
    { "lat": 51.0959827, "lon": 4.3747129 },
    { "lat": 51.0959694, "lon": 4.3747178 },
    { "lat": 51.0958287, "lon": 4.3744509 },
    { "lat": 51.0952754, "lon": 4.3733753 },
    { "lat": 51.0952501, "lon": 4.3732747 },
    { "lat": 51.0952400, "lon": 4.3730360 },
    { "lat": 51.0952400, "lon": 4.3728563 },
    { "lat": 51.0953815, "lon": 4.3728134 },
    { "lat": 51.0955533, "lon": 4.3727893 },
    { "lat": 51.0956796, "lon": 4.3727785 },
    { "lat": 51.0959205, "lon": 4.3727598 }
  ],
  "tags": {
    "addr:housenumber": "2",
    "addr:postcode": "2850",
    "addr:street": "Jan Baptist Davidstraat",
    "amenity": "school",
    "name": "Atheneum Boom"
  }
},
{
  "type": "way",
  "id": 26500475,
  "bounds": {
    "minlat": 51.0977603,
    "minlon": 4.3695009,
    "maxlat": 51.0991411,
    "maxlon": 4.3726039
  },
  "geometry": [
    { "lat": 51.0991192, "lon": 4.3707413 },
    { "lat": 51.0990333, "lon": 4.3705577 },
    { "lat": 51.0987099, "lon": 4.3701714 },
    { "lat": 51.0981457, "lon": 4.3695679 },
    { "lat": 51.0980648, "lon": 4.3695009 },
    { "lat": 51.0978324, "lon": 4.3697154 },
    { "lat": 51.0978578, "lon": 4.3713511 },
    { "lat": 51.0977603, "lon": 4.3724977 },
    { "lat": 51.0980640, "lon": 4.3725265 },
    { "lat": 51.0987831, "lon": 4.3725994 },
    { "lat": 51.0988228, "lon": 4.3726039 },
    { "lat": 51.0989354, "lon": 4.3719367 },
    { "lat": 51.0991411, "lon": 4.3708366 },
    { "lat": 51.0991192, "lon": 4.3707413 }
  ],
  "tags": {
    "OnroerendErfgoed:criteria": "BE",
    "addr:city": "Boom",
    "addr:housenumber": "44/1",
    "addr:street": "Beukenlaan",
    "amenity": "school",
    "heritage": "4",
    "heritage:operator": "OnroerendErfgoed",
    "heritage:website": "https://inventaris.onroerenderfgoed.be/dibe/relict/12633",
    "name": "Provinciale Technische Scholen",
    "ref:OnroerendErfgoed": "12633",
    "website": "https://www.ptsboom.be/",
    "wikidata": "Q67169964"
  }
},
{
  "type": "way",
  "id": 26500503,
  "bounds": {
    "minlat": 51.0972396,
    "minlon": 4.3731906,
    "maxlat": 51.0986833,
    "maxlon": 4.3761804
  },
  "geometry": [
    { "lat": 51.0981383, "lon": 4.3733935 },
    { "lat": 51.0981205, "lon": 4.3733801 },
    { "lat": 51.0977254, "lon": 4.3732350 },
    { "lat": 51.0976300, "lon": 4.3731906 },
    { "lat": 51.0975739, "lon": 4.3736656 },
    { "lat": 51.0975151, "lon": 4.3740880 },
    { "lat": 51.0974461, "lon": 4.3745652 },
    { "lat": 51.0974200, "lon": 4.3747544 },
    { "lat": 51.0974105, "lon": 4.3748231 },
    { "lat": 51.0973695, "lon": 4.3751115 },
    { "lat": 51.0973638, "lon": 4.3751488 },
    { "lat": 51.0973188, "lon": 4.3754411 },
    { "lat": 51.0973092, "lon": 4.3755035 },
    { "lat": 51.0972396, "lon": 4.3760038 },
    { "lat": 51.0974379, "lon": 4.3761804 },
    { "lat": 51.0976380, "lon": 4.3759113 },
    { "lat": 51.0986833, "lon": 4.3745307 },
    { "lat": 51.0984565, "lon": 4.3740337 },
    { "lat": 51.0982893, "lon": 4.3742327 },
    { "lat": 51.0981565, "lon": 4.3739392 },
    { "lat": 51.0980628, "lon": 4.3740458 },
    { "lat": 51.0981383, "lon": 4.3733935 }
  ],
  "tags": {
    "alt_name": "Boom",
    "amenity": "school",
    "contact:facebook": "https://www.facebook.com/boomparkGO/",
    "contact:instagram": "https://www.instagram.com/boomparkgo/",
    "email": "directeur@boompark.be",
    "name": "Boom Park",
    "official_name": "GO! Basisschool Park",
    "phone": "+32 3 888 20 18",
    "school": "kindergarten;primary",
    "website": "https://boompark.be/"
  }
},
{
  "type": "way",
  "id": 26576729,
  "bounds": {
    "minlat": 51.0874190,
    "minlon": 4.3684756,
    "maxlat": 51.0887227,
    "maxlon": 4.3702523
  },
  "geometry": [
    { "lat": 51.0878239, "lon": 4.3684756 },
    { "lat": 51.0874190, "lon": 4.3694506 },
    { "lat": 51.0876129, "lon": 4.3695598 },
    { "lat": 51.0875838, "lon": 4.3697392 },
    { "lat": 51.0882406, "lon": 4.3700539 },
    { "lat": 51.0886376, "lon": 4.3702422 },
    { "lat": 51.0886587, "lon": 4.3702523 },
    { "lat": 51.0886885, "lon": 4.3701871 },
    { "lat": 51.0887227, "lon": 4.3701175 },
    { "lat": 51.0885071, "lon": 4.3698698 },
    { "lat": 51.0886586, "lon": 4.3697130 },
    { "lat": 51.0886332, "lon": 4.3696814 },
    { "lat": 51.0886419, "lon": 4.3696643 },
    { "lat": 51.0886262, "lon": 4.3696240 },
    { "lat": 51.0885180, "lon": 4.3695107 },
    { "lat": 51.0884861, "lon": 4.3694759 },
    { "lat": 51.0884489, "lon": 4.3694432 },
    { "lat": 51.0882206, "lon": 4.3691901 },
    { "lat": 51.0882336, "lon": 4.3691583 },
    { "lat": 51.0882977, "lon": 4.3690024 },
    { "lat": 51.0882519, "lon": 4.3689461 },
    { "lat": 51.0878239, "lon": 4.3684756 }
  ],
  "tags": {
    "amenity": "school",
    "name": "Onze-Lieve-Vrouwinstituut",
    "operator": "VZW OLVI Boom",
    "ref": "117036;117044",
    "school": "lower_secondary;middle_secondary",
    "website": "https://www.olviboom.be/middenschool"
  }
},
{
  "type": "way",
  "id": 26576735,
  "bounds": {
    "minlat": 51.0869877,
    "minlon": 4.3687759,
    "maxlat": 51.0876129,
    "maxlon": 4.3697392
  },
  "geometry": [
    { "lat": 51.0869877, "lon": 4.3692137 },
    { "lat": 51.0870125, "lon": 4.3691525 },
    { "lat": 51.0871120, "lon": 4.3689067 },
    { "lat": 51.0871650, "lon": 4.3687759 },
    { "lat": 51.0874827, "lon": 4.3691089 },
    { "lat": 51.0873656, "lon": 4.3693900 },
    { "lat": 51.0874190, "lon": 4.3694506 },
    { "lat": 51.0876129, "lon": 4.3695598 },
    { "lat": 51.0875838, "lon": 4.3697392 },
    { "lat": 51.0875339, "lon": 4.3697146 },
    { "lat": 51.0874560, "lon": 4.3696537 },
    { "lat": 51.0874436, "lon": 4.3696830 },
    { "lat": 51.0874177, "lon": 4.3696564 },
    { "lat": 51.0873652, "lon": 4.3696008 },
    { "lat": 51.0869877, "lon": 4.3692137 }
  ],
  "tags": {
    "amenity": "school",
    "name": "De Hoeksteen",
    "operator": "GO! scholengroep Rivierenland",
    "ref": "919",
    "school": "kindergarten;primary",
    "website": "https://www.dehoeksteen-boom.be/"
  }
},
{
  "type": "way",
  "id": 26576760,
  "bounds": {
    "minlat": 51.0883588,
    "minlon": 4.3683762,
    "maxlat": 51.0891310,
    "maxlon": 4.3694489
  },
  "geometry": [
    { "lat": 51.0885262, "lon": 4.3683762 },
    { "lat": 51.0888872, "lon": 4.3687909 },
    { "lat": 51.0889536, "lon": 4.3688028 },
    { "lat": 51.0890619, "lon": 4.3689308 },
    { "lat": 51.0890010, "lon": 4.3690838 },
    { "lat": 51.0891310, "lon": 4.3692428 },
    { "lat": 51.0890339, "lon": 4.3694489 },
    { "lat": 51.0888883, "lon": 4.3692632 },
    { "lat": 51.0887340, "lon": 4.3690825 },
    { "lat": 51.0884672, "lon": 4.3687874 },
    { "lat": 51.0883968, "lon": 4.3689462 },
    { "lat": 51.0883605, "lon": 4.3689043 },
    { "lat": 51.0883594, "lon": 4.3689016 },
    { "lat": 51.0883588, "lon": 4.3688982 },
    { "lat": 51.0883589, "lon": 4.3688938 },
    { "lat": 51.0884120, "lon": 4.3687379 },
    { "lat": 51.0885262, "lon": 4.3683762 }
  ],
  "tags": {
    "amenity": "school",
    "name": "Onze-Lieve-Vrouwinstituut",
    "school": "middle_secondary"
  }
},
{
  "type": "way",
  "id": 26576802,
  "bounds": {
    "minlat": 51.1039855,
    "minlon": 4.3838547,
    "maxlat": 51.1060739,
    "maxlon": 4.3868780
  },
  "geometry": [
    { "lat": 51.1040640, "lon": 4.3847064 },
    { "lat": 51.1055272, "lon": 4.3839682 },
    { "lat": 51.1056367, "lon": 4.3838547 },
    { "lat": 51.1060739, "lon": 4.3849169 },
    { "lat": 51.1056233, "lon": 4.3854908 },
    { "lat": 51.1058882, "lon": 4.3862087 },
    { "lat": 51.1057604, "lon": 4.3862077 },
    { "lat": 51.1056752, "lon": 4.3861534 },
    { "lat": 51.1056196, "lon": 4.3861507 },
    { "lat": 51.1054613, "lon": 4.3862338 },
    { "lat": 51.1045582, "lon": 4.3868780 },
    { "lat": 51.1042984, "lon": 4.3859024 },
    { "lat": 51.1041404, "lon": 4.3853260 },
    { "lat": 51.1039855, "lon": 4.3847472 },
    { "lat": 51.1040640, "lon": 4.3847064 }
  ],
  "tags": {
    "addr:city": "Reet",
    "addr:housenumber": "31",
    "addr:postcode": "2840",
    "addr:street": "Predikherenhoevestraat",
    "amenity": "school",
    "name": "Groenlaar",
    "note": "nieuwbouw in gang dec.2017",
    "operator": "GO Vlaanderen",
    "operator:type": "government"
  }
},
{
  "type": "way",
  "id": 26576828,
  "bounds": {
    "minlat": 51.1036820,
    "minlon": 4.4102576,
    "maxlat": 51.1040901,
    "maxlon": 4.4114300
  },
  "geometry": [
    { "lat": 51.1038117, "lon": 4.4114300 },
    { "lat": 51.1040803, "lon": 4.4112851 },
    { "lat": 51.1040326, "lon": 4.4110042 },
    { "lat": 51.1040506, "lon": 4.4109952 },
    { "lat": 51.1039574, "lon": 4.4105152 },
    { "lat": 51.1040901, "lon": 4.4104552 },
    { "lat": 51.1040528, "lon": 4.4102576 },
    { "lat": 51.1037679, "lon": 4.4103936 },
    { "lat": 51.1036820, "lon": 4.4104415 },
    { "lat": 51.1037224, "lon": 4.4112059 },
    { "lat": 51.1037333, "lon": 4.4113427 },
    { "lat": 51.1037447, "lon": 4.4113769 },
    { "lat": 51.1037615, "lon": 4.4114057 },
    { "lat": 51.1037855, "lon": 4.4114231 },
    { "lat": 51.1038117, "lon": 4.4114300 }
  ],
  "tags": {
    "amenity": "school",
    "name": "Gemeentelijke Basisschool Eikenlaar",
    "school": "kindergarten;primary",
    "website": "https://data-onderwijs.vlaanderen.be/onderwijsaanbod/adres.aspx?sn=10561"
  }
},
{
  "type": "way",
  "id": 26577038,
  "bounds": {
    "minlat": 51.1010303,
    "minlon": 4.4105155,
    "maxlat": 51.1016714,
    "maxlon": 4.4116815
  },
  "geometry": [
    { "lat": 51.1010303, "lon": 4.4109646 },
    { "lat": 51.1013233, "lon": 4.4108065 },
    { "lat": 51.1012934, "lon": 4.4106326 },
    { "lat": 51.1014094, "lon": 4.4105836 },
    { "lat": 51.1014181, "lon": 4.4106239 },
    { "lat": 51.1016102, "lon": 4.4105155 },
    { "lat": 51.1016614, "lon": 4.4112227 },
    { "lat": 51.1016714, "lon": 4.4114008 },
    { "lat": 51.1015544, "lon": 4.4114697 },
    { "lat": 51.1013317, "lon": 4.4115962 },
    { "lat": 51.1012042, "lon": 4.4116680 },
    { "lat": 51.1011819, "lon": 4.4116815 },
    { "lat": 51.1010303, "lon": 4.4109646 }
  ],
  "tags": {
    "addr:housenumber": "6",
    "addr:street": "Molenstraat",
    "amenity": "school",
    "name": "Basisschool De Wingerd",
    "school": "kindergarten;primary",
    "website": "https://data-onderwijs.vlaanderen.be/onderwijsaanbod/adres.aspx?sn=10553",
    "website_2": "https://www.wingerd.be/wie-is-wie/scholen-gemeenschap/"
  }
},
{
  "type": "way",
  "id": 26577071,
  "bounds": {
    "minlat": 51.0903754,
    "minlon": 4.3708335,
    "maxlat": 51.0917441,
    "maxlon": 4.3733427
  },
  "geometry": [
    { "lat": 51.0917441, "lon": 4.3717697 },
    { "lat": 51.0910953, "lon": 4.3731495 },
    { "lat": 51.0910103, "lon": 4.3733427 },
    { "lat": 51.0909538, "lon": 4.3733128 },
    { "lat": 51.0909075, "lon": 4.3732624 },
    { "lat": 51.0908984, "lon": 4.3732813 },
    { "lat": 51.0906231, "lon": 4.3731302 },
    { "lat": 51.0906711, "lon": 4.3730238 },
    { "lat": 51.0904262, "lon": 4.3727699 },
    { "lat": 51.0903754, "lon": 4.3727419 },
    { "lat": 51.0904455, "lon": 4.3724550 },
    { "lat": 51.0905568, "lon": 4.3720089 },
    { "lat": 51.0906031, "lon": 4.3719341 },
    { "lat": 51.0906401, "lon": 4.3717902 },
    { "lat": 51.0906156, "lon": 4.3717734 },
    { "lat": 51.0908353, "lon": 4.3708884 },
    { "lat": 51.0909539, "lon": 4.3708335 },
    { "lat": 51.0914386, "lon": 4.3714059 },
    { "lat": 51.0917441, "lon": 4.3717697 }
  ],
  "tags": {
    "amenity": "school",
    "name": "Middenschool Den Brandt"
  }
},
{
  "type": "way",
  "id": 27257767,
  "bounds": {
    "minlat": 51.1556426,
    "minlon": 4.4338945,
    "maxlat": 51.1570369,
    "maxlon": 4.4361948
  },
  "geometry": [
    { "lat": 51.1567516, "lon": 4.4338945 },
    { "lat": 51.1570369, "lon": 4.4354910 },
    { "lat": 51.1556534, "lon": 4.4361948 },
    { "lat": 51.1556426, "lon": 4.4357485 },
    { "lat": 51.1557772, "lon": 4.4343752 },
    { "lat": 51.1567516, "lon": 4.4338945 }
  ],
  "tags": {
    "addr:city": "Edegem",
    "addr:country": "BE",
    "addr:housenumber": "1",
    "addr:postcode": "2650",
    "addr:street": "Baron de Celleslaan",
    "amenity": "school",
    "name": "'t Kofschip",
    "website": "http://www.basisschool-tkofschip.be"
  }
},
{
  "type": "way",
  "id": 27257768,
  "bounds": {
    "minlat": 51.1539514,
    "minlon": 4.4441598,
    "maxlat": 51.1551842,
    "maxlon": 4.4458336
  },
  "geometry": [
    { "lat": 51.1540599, "lon": 4.4458336 },
    { "lat": 51.1540740, "lon": 4.4451415 },
    { "lat": 51.1540751, "lon": 4.4449544 },
    { "lat": 51.1539514, "lon": 4.4449484 },
    { "lat": 51.1539545, "lon": 4.4447369 },
    { "lat": 51.1541128, "lon": 4.4447363 },
    { "lat": 51.1541093, "lon": 4.4446212 },
    { "lat": 51.1546697, "lon": 4.4446381 },
    { "lat": 51.1547993, "lon": 4.4444807 },
    { "lat": 51.1548845, "lon": 4.4443893 },
    { "lat": 51.1549358, "lon": 4.4443282 },
    { "lat": 51.1550446, "lon": 4.4441598 },
    { "lat": 51.1551101, "lon": 4.4442620 },
    { "lat": 51.1551203, "lon": 4.4442859 },
    { "lat": 51.1551842, "lon": 4.4444161 },
    { "lat": 51.1551655, "lon": 4.4444399 },
    { "lat": 51.1550095, "lon": 4.4445984 },
    { "lat": 51.1550327, "lon": 4.4446584 },
    { "lat": 51.1549164, "lon": 4.4447726 },
    { "lat": 51.1549278, "lon": 4.4448133 },
    { "lat": 51.1549336, "lon": 4.4448366 },
    { "lat": 51.1549435, "lon": 4.4449251 },
    { "lat": 51.1547433, "lon": 4.4450814 },
    { "lat": 51.1547537, "lon": 4.4451521 },
    { "lat": 51.1547167, "lon": 4.4451710 },
    { "lat": 51.1546180, "lon": 4.4452145 },
    { "lat": 51.1546298, "lon": 4.4452852 },
    { "lat": 51.1542831, "lon": 4.4454254 },
    { "lat": 51.1542347, "lon": 4.4454551 },
    { "lat": 51.1542968, "lon": 4.4457306 },
    { "lat": 51.1542622, "lon": 4.4457457 },
    { "lat": 51.1541619, "lon": 4.4457893 },
    { "lat": 51.1540919, "lon": 4.4458197 },
    { "lat": 51.1540599, "lon": 4.4458336 }
  ],
  "tags": {
    "addr:city": "Edegem",
    "addr:country": "BE",
    "addr:housenumber": "3",
    "addr:postcode": "2650",
    "addr:street": "Gemeenteplein",
    "amenity": "school",
    "name": "Andreas Vesalius",
    "operator": "Gemeentebestuur Edegem",
    "website": "https://www.andreasvesalius.net",
    "wheelchair": "limited"
  }
},
{
  "type": "way",
  "id": 27678384,
  "bounds": {
    "minlat": 51.0788283,
    "minlon": 4.3966892,
    "maxlat": 51.0795073,
    "maxlon": 4.3973764
  },
  "geometry": [
    { "lat": 51.0788823, "lon": 4.3970217 },
    { "lat": 51.0789630, "lon": 4.3966892 },
    { "lat": 51.0794061, "lon": 4.3969411 },
    { "lat": 51.0795073, "lon": 4.3969962 },
    { "lat": 51.0794244, "lon": 4.3973764 },
    { "lat": 51.0792661, "lon": 4.3972899 },
    { "lat": 51.0792117, "lon": 4.3972611 },
    { "lat": 51.0791925, "lon": 4.3973496 },
    { "lat": 51.0788283, "lon": 4.3971410 },
    { "lat": 51.0788578, "lon": 4.3970096 },
    { "lat": 51.0788823, "lon": 4.3970217 }
  ],
  "tags": {
    "addr:housenumber": "2",
    "addr:street": "Stille Weg",
    "amenity": "school",
    "name": "De Wingerd"
  }
},
{
  "type": "way",
  "id": 29996949,
  "bounds": {
    "minlat": 51.0340690,
    "minlon": 4.4874271,
    "maxlat": 51.0361509,
    "maxlon": 4.4903781
  },
  "geometry": [
    { "lat": 51.0340690, "lon": 4.4899828 },
    { "lat": 51.0361509, "lon": 4.4903781 },
    { "lat": 51.0361309, "lon": 4.4891467 },
    { "lat": 51.0361000, "lon": 4.4886997 },
    { "lat": 51.0359557, "lon": 4.4884931 },
    { "lat": 51.0360140, "lon": 4.4879862 },
    { "lat": 51.0357564, "lon": 4.4878619 },
    { "lat": 51.0358194, "lon": 4.4874985 },
    { "lat": 51.0357031, "lon": 4.4874271 },
    { "lat": 51.0354961, "lon": 4.4883703 },
    { "lat": 51.0348375, "lon": 4.4880369 },
    { "lat": 51.0346836, "lon": 4.4884371 },
    { "lat": 51.0340690, "lon": 4.4899828 }
  ],
  "tags": {
    "addr:city": "Mechelen",
    "addr:housenumber": "51",
    "addr:postcode": "2800",
    "addr:street": "Caputsteenstraat",
    "amenity": "school",
    "name": "GO! BS Lyceum - BA Campus Caputsteen"
  }
},
{
  "type": "way",
  "id": 31760669,
  "bounds": {
    "minlat": 51.0401553,
    "minlon": 4.4440787,
    "maxlat": 51.0408449,
    "maxlon": 4.4455239
  },
  "geometry": [
    { "lat": 51.0408449, "lon": 4.4444014 },
    { "lat": 51.0408436, "lon": 4.4444030 },
    { "lat": 51.0407721, "lon": 4.4444910 },
    { "lat": 51.0407756, "lon": 4.4444987 },
    { "lat": 51.0407966, "lon": 4.4445435 },
    { "lat": 51.0407409, "lon": 4.4445873 },
    { "lat": 51.0406410, "lon": 4.4446726 },
    { "lat": 51.0406886, "lon": 4.4448132 },
    { "lat": 51.0406321, "lon": 4.4448664 },
    { "lat": 51.0405657, "lon": 4.4449227 },
    { "lat": 51.0405279, "lon": 4.4449436 },
    { "lat": 51.0405906, "lon": 4.4451118 },
    { "lat": 51.0405647, "lon": 4.4451348 },
    { "lat": 51.0405997, "lon": 4.4452297 },
    { "lat": 51.0405787, "lon": 4.4452473 },
    { "lat": 51.0406154, "lon": 4.4453469 },
    { "lat": 51.0405302, "lon": 4.4454213 },
    { "lat": 51.0404884, "lon": 4.4455239 },
    { "lat": 51.0404217, "lon": 4.4453924 },
    { "lat": 51.0403644, "lon": 4.4452550 },
    { "lat": 51.0403083, "lon": 4.4450747 },
    { "lat": 51.0402173, "lon": 4.4447604 },
    { "lat": 51.0401553, "lon": 4.4443338 },
    { "lat": 51.0402194, "lon": 4.4442651 },
    { "lat": 51.0402320, "lon": 4.4442527 },
    { "lat": 51.0402445, "lon": 4.4442403 },
    { "lat": 51.0402510, "lon": 4.4442338 },
    { "lat": 51.0403286, "lon": 4.4444191 },
    { "lat": 51.0403386, "lon": 4.4444188 },
    { "lat": 51.0404806, "lon": 4.4442760 },
    { "lat": 51.0406054, "lon": 4.4441505 },
    { "lat": 51.0406768, "lon": 4.4440787 },
    { "lat": 51.0408072, "lon": 4.4443291 },
    { "lat": 51.0408133, "lon": 4.4443408 },
    { "lat": 51.0408194, "lon": 4.4443524 },
    { "lat": 51.0408449, "lon": 4.4444014 }
  ],
  "tags": {
    "addr:city": "Mechelen (Battel)",
    "addr:housenumber": "25",
    "addr:postcode": "2800",
    "addr:street": "Wolverbosstraat",
    "amenity": "school",
    "name": "GVBS De Ark"
  }
},
{
  "type": "way",
  "id": 34934808,
  "bounds": {
    "minlat": 51.1260521,
    "minlon": 4.3374818,
    "maxlat": 51.1269498,
    "maxlon": 4.3389906
  },
  "geometry": [
    { "lat": 51.1269498, "lon": 4.3386590 },
    { "lat": 51.1267499, "lon": 4.3389107 },
    { "lat": 51.1266558, "lon": 4.3389709 },
    { "lat": 51.1266168, "lon": 4.3389514 },
    { "lat": 51.1265334, "lon": 4.3389878 },
    { "lat": 51.1264603, "lon": 4.3389906 },
    { "lat": 51.1263061, "lon": 4.3385122 },
    { "lat": 51.1261773, "lon": 4.3381217 },
    { "lat": 51.1260521, "lon": 4.3377423 },
    { "lat": 51.1260661, "lon": 4.3375476 },
    { "lat": 51.1261043, "lon": 4.3375523 },
    { "lat": 51.1262894, "lon": 4.3375700 },
    { "lat": 51.1263130, "lon": 4.3375733 },
    { "lat": 51.1264765, "lon": 4.3374982 },
    { "lat": 51.1266383, "lon": 4.3374818 },
    { "lat": 51.1267365, "lon": 4.3377767 },
    { "lat": 51.1267894, "lon": 4.3379356 },
    { "lat": 51.1268201, "lon": 4.3380191 },
    { "lat": 51.1268477, "lon": 4.3380167 },
    { "lat": 51.1269134, "lon": 4.3384293 },
    { "lat": 51.1269498, "lon": 4.3386590 }
  ],
  "tags": {
    "addr:city": "Schelle",
    "addr:country": "BE",
    "addr:housenumber": "100",
    "addr:postcode": "2627",
    "addr:street": "Provinciale Steenweg",
    "amenity": "school",
    "email": "gbs.deklim@schelle.be",
    "name": "Gemeentelijke Basisschool De Klim",
    "phone": "+32 3 887 61 26",
    "school": "kindergarten;primary",
    "website": "https://www.deklim.be/"
  }
},
{
  "type": "way",
  "id": 40059828,
  "bounds": {
    "minlat": 51.1416840,
    "minlon": 4.4455000,
    "maxlat": 51.1431870,
    "maxlon": 4.4471524
  },
  "geometry": [
    { "lat": 51.1426350, "lon": 4.4456656 },
    { "lat": 51.1417563, "lon": 4.4455000 },
    { "lat": 51.1417396, "lon": 4.4456174 },
    { "lat": 51.1417167, "lon": 4.4459537 },
    { "lat": 51.1416840, "lon": 4.4464727 },
    { "lat": 51.1417190, "lon": 4.4464792 },
    { "lat": 51.1417904, "lon": 4.4464925 },
    { "lat": 51.1417758, "lon": 4.4467117 },
    { "lat": 51.1418424, "lon": 4.4467281 },
    { "lat": 51.1419029, "lon": 4.4467429 },
    { "lat": 51.1418932, "lon": 4.4469263 },
    { "lat": 51.1418917, "lon": 4.4469547 },
    { "lat": 51.1426057, "lon": 4.4471078 },
    { "lat": 51.1426327, "lon": 4.4471099 },
    { "lat": 51.1431360, "lon": 4.4471485 },
    { "lat": 51.1431870, "lon": 4.4471524 },
    { "lat": 51.1426350, "lon": 4.4456656 }
  ],
  "tags": {
    "addr:city": "Kontich",
    "addr:country": "BE",
    "addr:housenumber": "129",
    "addr:postcode": "2550",
    "addr:street": "Edegemsesteenweg",
    "amenity": "school",
    "name": "sint-rita Campus Technologie (was : VTI Kontich)",
    "note": "merk op dat sint-rita volledig onderkast is, CAMPUS TECHNOLOGIE volledig kleine kapitalen"
  }
},
{
  "type": "way",
  "id": 40713720,
  "bounds": {
    "minlat": 51.1574740,
    "minlon": 4.4927010,
    "maxlat": 51.1580277,
    "maxlon": 4.4939790
  },
  "geometry": [
    { "lat": 51.1579474, "lon": 4.4927010 },
    { "lat": 51.1574740, "lon": 4.4931050 },
    { "lat": 51.1575595, "lon": 4.4933561 },
    { "lat": 51.1575819, "lon": 4.4933351 },
    { "lat": 51.1578043, "lon": 4.4939790 },
    { "lat": 51.1578779, "lon": 4.4939163 },
    { "lat": 51.1577764, "lon": 4.4936182 },
    { "lat": 51.1577970, "lon": 4.4936015 },
    { "lat": 51.1576547, "lon": 4.4931830 },
    { "lat": 51.1579731, "lon": 4.4929051 },
    { "lat": 51.1579952, "lon": 4.4929684 },
    { "lat": 51.1580277, "lon": 4.4929407 },
    { "lat": 51.1579474, "lon": 4.4927010 }
  ],
  "tags": {
    "addr:housenumber": "15",
    "addr:postcode": "2530",
    "addr:street": "Jef Van Hoofplein",
    "amenity": "school",
    "name": "St. Gabriël College, Campus JVH"
  }
},
{
  "type": "way",
  "id": 41050911,
  "bounds": {
    "minlat": 51.1520705,
    "minlon": 4.3904384,
    "maxlat": 51.1529378,
    "maxlon": 4.3913266
  },
  "geometry": [
    { "lat": 51.1528611, "lon": 4.3908536 },
    { "lat": 51.1529378, "lon": 4.3912486 },
    { "lat": 51.1522231, "lon": 4.3913266 },
    { "lat": 51.1520705, "lon": 4.3907851 },
    { "lat": 51.1527604, "lon": 4.3904384 },
    { "lat": 51.1528611, "lon": 4.3908536 }
  ],
  "tags": {
    "addr:housenumber": "9",
    "addr:street": "Edenplein",
    "amenity": "school",
    "name": "Basisschool Neerland",
    "website": "https://www.neerlandschool.be/"
  }
},
{
  "type": "way",
  "id": 46769375,
  "bounds": {
    "minlat": 51.5494810,
    "minlon": 5.0890633,
    "maxlat": 51.5500328,
    "maxlon": 5.0898708
  },
  "geometry": [
    { "lat": 51.5498988, "lon": 5.0890633 },
    { "lat": 51.5500328, "lon": 5.0895480 },
    { "lat": 51.5496058, "lon": 5.0898708 },
    { "lat": 51.5495530, "lon": 5.0897143 },
    { "lat": 51.5494810, "lon": 5.0895322 },
    { "lat": 51.5497544, "lon": 5.0891484 },
    { "lat": 51.5498988, "lon": 5.0890633 }
  ],
  "tags": {
    "amenity": "school"
  }
},
{
  "type": "way",
  "id": 91018616,
  "bounds": {
    "minlat": 51.0394211,
    "minlon": 4.4486674,
    "maxlat": 51.0397222,
    "maxlon": 4.4493213
  },
  "geometry": [
    { "lat": 51.0396354, "lon": 4.4493213 },
    { "lat": 51.0397222, "lon": 4.4492473 },
    { "lat": 51.0396145, "lon": 4.4489428 },
    { "lat": 51.0395346, "lon": 4.4490160 },
    { "lat": 51.0395161, "lon": 4.4489612 },
    { "lat": 51.0395955, "lon": 4.4488923 },
    { "lat": 51.0395368, "lon": 4.4487203 },
    { "lat": 51.0395082, "lon": 4.4487479 },
    { "lat": 51.0394800, "lon": 4.4486674 },
    { "lat": 51.0394211, "lon": 4.4487190 },
    { "lat": 51.0396354, "lon": 4.4493213 }
  ],
  "tags": {
    "addr:housenumber": "1",
    "addr:street": "Hogeblokstraat",
    "amenity": "school",
    "name": "Insilencio"
  }
},
{
  "type": "way",
  "id": 91426654,
  "bounds": {
    "minlat": 51.0428360,
    "minlon": 4.4743365,
    "maxlat": 51.0434014,
    "maxlon": 4.4751866
  },
  "geometry": [
    { "lat": 51.0428531, "lon": 4.4743499 },
    { "lat": 51.0431249, "lon": 4.4743409 },
    { "lat": 51.0433942, "lon": 4.4743365 },
    { "lat": 51.0434014, "lon": 4.4751777 },
    { "lat": 51.0432821, "lon": 4.4751793 },
    { "lat": 51.0432348, "lon": 4.4751799 },
    { "lat": 51.0431338, "lon": 4.4751812 },
    { "lat": 51.0428397, "lon": 4.4751866 },
    { "lat": 51.0428385, "lon": 4.4747886 },
    { "lat": 51.0428360, "lon": 4.4743872 },
    { "lat": 51.0428531, "lon": 4.4743499 }
  ],
  "tags": {
    "addr:housenumber": "25",
    "addr:street": "Lijsterstraat",
    "amenity": "school",
    "email": "info@villazonnebloem.be",
    "isced:level": "0,1",
    "landuse": "education",
    "name": "Freinetschool Het Zonnehuis",
    "operator": "Villa Zonnebloem",
    "operator:website": "https://www.villazonnebloem.be/",
    "phone": "+32 15 21 83 33",
    "school": "kindergarten;primary",
    "website": "https://www.villazonnebloem.be/klaskrant/het-zonnehuis"
  }
},
{
  "type": "way",
  "id": 91678305,
  "bounds": {
    "minlat": 51.0497324,
    "minlon": 4.3494169,
    "maxlat": 51.0512493,
    "maxlon": 4.3512379
  },
  "geometry": [
    { "lat": 51.0509505, "lon": 4.3498265 },
    { "lat": 51.0510559, "lon": 4.3499390 },
    { "lat": 51.0511303, "lon": 4.3500626 },
    { "lat": 51.0511832, "lon": 4.3502045 },
    { "lat": 51.0512295, "lon": 4.3503807 },
    { "lat": 51.0512444, "lon": 4.3505016 },
    { "lat": 51.0512493, "lon": 4.3506252 },
    { "lat": 51.0512394, "lon": 4.3507803 },
    { "lat": 51.0512014, "lon": 4.3509670 },
    { "lat": 51.0511496, "lon": 4.3511416 },
    { "lat": 51.0511121, "lon": 4.3512379 },
    { "lat": 51.0504795, "lon": 4.3506142 },
    { "lat": 51.0505707, "lon": 4.3503801 },
    { "lat": 51.0501180, "lon": 4.3499337 },
    { "lat": 51.0499237, "lon": 4.3504322 },
    { "lat": 51.0498391, "lon": 4.3503488 },
    { "lat": 51.0500300, "lon": 4.3498590 },
    { "lat": 51.0497324, "lon": 4.3495656 },
    { "lat": 51.0497904, "lon": 4.3494169 },
    { "lat": 51.0501342, "lon": 4.3497559 },
    { "lat": 51.0501543, "lon": 4.3497053 },
    { "lat": 51.0501924, "lon": 4.3497457 },
    { "lat": 51.0502037, "lon": 4.3497181 },
    { "lat": 51.0505072, "lon": 4.3500152 },
    { "lat": 51.0506729, "lon": 4.3496074 },
    { "lat": 51.0508269, "lon": 4.3497593 },
    { "lat": 51.0508423, "lon": 4.3497198 },
    { "lat": 51.0509505, "lon": 4.3498265 }
  ],
  "tags": {
    "addr:city": "Willebroek",
    "addr:country": "BE",
    "addr:housenumber": "12a",
    "addr:postcode": "2830",
    "amenity": "school",
    "name": "Basisschool de Tovertuin",
    "website": "https://www.bstovertuin.be/"
  }
},
{
  "type": "way",
  "id": 94535661,
  "bounds": {
    "minlat": 51.0601946,
    "minlon": 4.4698599,
    "maxlat": 51.0603212,
    "maxlon": 4.4700960
  },
  "geometry": [
    { "lat": 51.0602862, "lon": 4.4700960 },
    { "lat": 51.0601946, "lon": 4.4700543 },
    { "lat": 51.0602295, "lon": 4.4698599 },
    { "lat": 51.0603212, "lon": 4.4699016 },
    { "lat": 51.0602862, "lon": 4.4700960 }
  ],
  "tags": {
    "addr:housenumber": "18",
    "addr:street": "Rozendaalweg",
    "amenity": "kindergarten",
    "building": "yes",
    "name": "De Spruitjes",
    "note": "\"Creche\""
  }
},
{
  "type": "way",
  "id": 96705900,
  "bounds": {
    "minlat": 51.1515240,
    "minlon": 4.4584730,
    "maxlat": 51.1518801,
    "maxlon": 4.4596816
  },
  "geometry": [
    { "lat": 51.1516481, "lon": 4.4584730 },
    { "lat": 51.1515486, "lon": 4.4585229 },
    { "lat": 51.1516101, "lon": 4.4588361 },
    { "lat": 51.1515948, "lon": 4.4588435 },
    { "lat": 51.1516033, "lon": 4.4588858 },
    { "lat": 51.1515785, "lon": 4.4589001 },
    { "lat": 51.1516096, "lon": 4.4590677 },
    { "lat": 51.1515240, "lon": 4.4591107 },
    { "lat": 51.1515577, "lon": 4.4592882 },
    { "lat": 51.1517050, "lon": 4.4592111 },
    { "lat": 51.1517312, "lon": 4.4593359 },
    { "lat": 51.1517057, "lon": 4.4593488 },
    { "lat": 51.1517713, "lon": 4.4596816 },
    { "lat": 51.1518801, "lon": 4.4596288 },
    { "lat": 51.1518162, "lon": 4.4592968 },
    { "lat": 51.1518133, "lon": 4.4592984 },
    { "lat": 51.1517952, "lon": 4.4592076 },
    { "lat": 51.1518153, "lon": 4.4591973 },
    { "lat": 51.1517738, "lon": 4.4589842 },
    { "lat": 51.1517548, "lon": 4.4589935 },
    { "lat": 51.1517040, "lon": 4.4587346 },
    { "lat": 51.1517233, "lon": 4.4587257 },
    { "lat": 51.1517001, "lon": 4.4586069 },
    { "lat": 51.1516759, "lon": 4.4586190 },
    { "lat": 51.1516481, "lon": 4.4584730 }
  ],
  "tags": {
    "addr:city": "Edegem",
    "addr:country": "BE",
    "addr:housenumber": "46A",
    "addr:postcode": "2650",
    "addr:street": "Jan Verbertlei",
    "amenity": "school",
    "building": "school",
    "name": "Vrije Lagere School - De Link",
    "source:geometry:date": "2008-03-26",
    "source:geometry:ref": "Gbg/999158"
  }
},
{
  "type": "way",
  "id": 105703007,
  "bounds": {
    "minlat": 51.1253658,
    "minlon": 4.4952376,
    "maxlat": 51.1262888,
    "maxlon": 4.4964467
  },
  "geometry": [
    { "lat": 51.1253658, "lon": 4.4960554 },
    { "lat": 51.1260758, "lon": 4.4952376 },
    { "lat": 51.1262888, "lon": 4.4957088 },
    { "lat": 51.1262606, "lon": 4.4957386 },
    { "lat": 51.1261804, "lon": 4.4955460 },
    { "lat": 51.1260692, "lon": 4.4956637 },
    { "lat": 51.1261583, "lon": 4.4958775 },
    { "lat": 51.1260418, "lon": 4.4960008 },
    { "lat": 51.1260249, "lon": 4.4959605 },
    { "lat": 51.1259582, "lon": 4.4960311 },
    { "lat": 51.1259435, "lon": 4.4959958 },
    { "lat": 51.1257001, "lon": 4.4962533 },
    { "lat": 51.1257346, "lon": 4.4963373 },
    { "lat": 51.1256903, "lon": 4.4964467 },
    { "lat": 51.1255672, "lon": 4.4962151 },
    { "lat": 51.1255202, "lon": 4.4962774 },
    { "lat": 51.1253658, "lon": 4.4960554 }
  ],
  "tags": {
    "addr:housenumber": "48",
    "addr:street": "Duffelsesteenweg",
    "amenity": "school",
    "building": "yes",
    "name": "GBS"
  }
},
{
  "type": "way",
  "id": 106878180,
  "bounds": {
    "minlat": 51.1554638,
    "minlon": 4.4719496,
    "maxlat": 51.1556580,
    "maxlon": 4.4729193
  },
  "geometry": [
    { "lat": 51.1555622, "lon": 4.4719496 },
    { "lat": 51.1554638, "lon": 4.4719732 },
    { "lat": 51.1555566, "lon": 4.4729193 },
    { "lat": 51.1556559, "lon": 4.4728958 },
    { "lat": 51.1556232, "lon": 4.4725556 },
    { "lat": 51.1556580, "lon": 4.4725479 },
    { "lat": 51.1556386, "lon": 4.4723368 },
    { "lat": 51.1556019, "lon": 4.4723461 },
    { "lat": 51.1555622, "lon": 4.4719496 }
  ],
  "tags": {
    "addr:city": "Hove",
    "addr:housenumber": "31",
    "addr:postcode": "2540",
    "addr:street": "Boechoutsesteenweg",
    "amenity": "school",
    "building": "yes",
    "grades": "vks:level=1 isced:level=0;1",
    "name": "'t Groen Schooltje",
    "website": "https://www.tgroenschooltje.be"
  }
},
{
  "type": "way",
  "id": 129637949,
  "bounds": {
    "minlat": 51.0322576,
    "minlon": 4.3538170,
    "maxlat": 51.0329609,
    "maxlon": 4.3549326
  },
  "geometry": [
    { "lat": 51.0329609, "lon": 4.3545004 },
    { "lat": 51.0326821, "lon": 4.3549326 },
    { "lat": 51.0325902, "lon": 4.3547620 },
    { "lat": 51.0325515, "lon": 4.3548147 },
    { "lat": 51.0322576, "lon": 4.3542691 },
    { "lat": 51.0325895, "lon": 4.3538170 },
    { "lat": 51.0329609, "lon": 4.3545004 }
  ],
  "tags": {
    "amenity": "school",
    "email": "secretariaat@sintjantisselt.be",
    "name": "Basisschool Sint-Jan",
    "phone": "+32 3 886 42 58",
    "school": "kindergarten;primary",
    "website": "https://sintjantisselt.be/"
  }
},
{
  "type": "way",
  "id": 129640173,
  "bounds": {
    "minlat": 51.0342649,
    "minlon": 4.3615907,
    "maxlat": 51.0353409,
    "maxlon": 4.3629418
  },
  "geometry": [
    { "lat": 51.0353409, "lon": 4.3619172 },
    { "lat": 51.0347896, "lon": 4.3625250 },
    { "lat": 51.0344052, "lon": 4.3629418 },
    { "lat": 51.0342649, "lon": 4.3626585 },
    { "lat": 51.0351963, "lon": 4.3615907 },
    { "lat": 51.0353409, "lon": 4.3619172 }
  ],
  "tags": {
    "amenity": "school",
    "name": "Klim op freinetschool"
  }
},
{
  "type": "way",
  "id": 134387325,
  "bounds": {
    "minlat": 51.0774930,
    "minlon": 4.3357734,
    "maxlat": 51.0781847,
    "maxlon": 4.3369010
  },
  "geometry": [
    { "lat": 51.0781847, "lon": 4.3361354 },
    { "lat": 51.0781269, "lon": 4.3362580 },
    { "lat": 51.0780892, "lon": 4.3363976 },
    { "lat": 51.0779527, "lon": 4.3366205 },
    { "lat": 51.0778822, "lon": 4.3367357 },
    { "lat": 51.0777809, "lon": 4.3369010 },
    { "lat": 51.0774930, "lon": 4.3365998 },
    { "lat": 51.0778490, "lon": 4.3357734 },
    { "lat": 51.0781847, "lon": 4.3361354 }
  ],
  "tags": {
    "amenity": "school",
    "contact:website": "https://sint-carolus.sjabi.be/",
    "education": "school",
    "full_name": "Vrije basisschool Sint-Carolus",
    "name": "Sint-Carolus",
    "school": "kindergarten;primary"
  }
},
{
  "type": "way",
  "id": 134389264,
  "bounds": {
    "minlat": 51.0882733,
    "minlon": 4.3301348,
    "maxlat": 51.0888245,
    "maxlon": 4.3310030
  },
  "geometry": [
    { "lat": 51.0888245, "lon": 4.3306834 },
    { "lat": 51.0888041, "lon": 4.3307334 },
    { "lat": 51.0887630, "lon": 4.3306822 },
    { "lat": 51.0886757, "lon": 4.3308610 },
    { "lat": 51.0886133, "lon": 4.3307683 },
    { "lat": 51.0885220, "lon": 4.3309461 },
    { "lat": 51.0884631, "lon": 4.3308751 },
    { "lat": 51.0884253, "lon": 4.3310030 },
    { "lat": 51.0883892, "lon": 4.3309910 },
    { "lat": 51.0883087, "lon": 4.3308815 },
    { "lat": 51.0883344, "lon": 4.3308109 },
    { "lat": 51.0882733, "lon": 4.3307393 },
    { "lat": 51.0884595, "lon": 4.3303185 },
    { "lat": 51.0884115, "lon": 4.3302420 },
    { "lat": 51.0884661, "lon": 4.3301348 },
    { "lat": 51.0886343, "lon": 4.3303681 },
    { "lat": 51.0886239, "lon": 4.3303885 },
    { "lat": 51.0888245, "lon": 4.3306834 }
  ],
  "tags": {
    "amenity": "school",
    "name": "De Krinkel"
  }
},
{
  "type": "way",
  "id": 134519356,
  "bounds": {
    "minlat": 51.0986964,
    "minlon": 4.3681892,
    "maxlat": 51.0994729,
    "maxlon": 4.3690667
  },
  "geometry": [
    { "lat": 51.0994729, "lon": 4.3683854 },
    { "lat": 51.0987212, "lon": 4.3681892 },
    { "lat": 51.0986964, "lon": 4.3684279 },
    { "lat": 51.0987288, "lon": 4.3685146 },
    { "lat": 51.0994117, "lon": 4.3690667 },
    { "lat": 51.0994729, "lon": 4.3683854 }
  ],
  "tags": {
    "amenity": "school",
    "name": "Basisschool De Reuzenboom"
  }
},
{
  "type": "way",
  "id": 134519357,
  "bounds": {
    "minlat": 51.0998893,
    "minlon": 4.3689808,
    "maxlat": 51.1005492,
    "maxlon": 4.3697724
  },
  "geometry": [
    { "lat": 51.1005492, "lon": 4.3690956 },
    { "lat": 51.1003410, "lon": 4.3697724 },
    { "lat": 51.0998893, "lon": 4.3694363 },
    { "lat": 51.1000232, "lon": 4.3690165 },
    { "lat": 51.1003144, "lon": 4.3692254 },
    { "lat": 51.1003918, "lon": 4.3689808 },
    { "lat": 51.1005492, "lon": 4.3690956 }
  ],
  "tags": {
    "amenity": "school",
    "name": "De Reuzenboom"
  }
},
{
  "type": "way",
  "id": 139760059,
  "bounds": {
    "minlat": 51.0427617,
    "minlon": 4.2611388,
    "maxlat": 51.0433109,
    "maxlon": 4.2617399
  },
  "geometry": [
    { "lat": 51.0432255, "lon": 4.2617399 },
    { "lat": 51.0431549, "lon": 4.2616921 },
    { "lat": 51.0427617, "lon": 4.2614348 },
    { "lat": 51.0428397, "lon": 4.2611388 },
    { "lat": 51.0431205, "lon": 4.2613257 },
    { "lat": 51.0431357, "lon": 4.2612742 },
    { "lat": 51.0431839, "lon": 4.2613050 },
    { "lat": 51.0431753, "lon": 4.2613475 },
    { "lat": 51.0432256, "lon": 4.2613791 },
    { "lat": 51.0433109, "lon": 4.2614333 },
    { "lat": 51.0432255, "lon": 4.2617399 }
  ],
  "tags": {
    "addr:housenumber": "48",
    "addr:street": "Lippelodorp",
    "amenity": "school",
    "name": "Vrije Basisschool Libos Lippelo",
    "website": "https://www.libos.be/"
  }
},
{
  "type": "way",
  "id": 142814528,
  "bounds": {
    "minlat": 51.1090408,
    "minlon": 4.3911442,
    "maxlat": 51.1103136,
    "maxlon": 4.3928628
  },
  "geometry": [
    { "lat": 51.1099038, "lon": 4.3911442 },
    { "lat": 51.1102098, "lon": 4.3919617 },
    { "lat": 51.1103047, "lon": 4.3922154 },
    { "lat": 51.1103136, "lon": 4.3922390 },
    { "lat": 51.1099722, "lon": 4.3926029 },
    { "lat": 51.1097387, "lon": 4.3927628 },
    { "lat": 51.1093772, "lon": 4.3928628 },
    { "lat": 51.1093521, "lon": 4.3922190 },
    { "lat": 51.1090584, "lon": 4.3922390 },
    { "lat": 51.1090408, "lon": 4.3915752 },
    { "lat": 51.1093295, "lon": 4.3915792 },
    { "lat": 51.1094590, "lon": 4.3915163 },
    { "lat": 51.1095960, "lon": 4.3914415 },
    { "lat": 51.1097322, "lon": 4.3913087 },
    { "lat": 51.1099038, "lon": 4.3911442 }
  ],
  "tags": {
    "addr:housenumber": "50",
    "addr:street": "Rozenlaan",
    "amenity": "school",
    "check_date": "2025-12-26",
    "name": "Groenlaar"
  }
},
{
  "type": "way",
  "id": 145410264,
  "bounds": {
    "minlat": 51.1262864,
    "minlon": 4.2707575,
    "maxlat": 51.1265175,
    "maxlon": 4.2715401
  },
  "geometry": [
    { "lat": 51.1263537, "lon": 4.2707575 },
    { "lat": 51.1263886, "lon": 4.2709162 },
    { "lat": 51.1264738, "lon": 4.2713039 },
    { "lat": 51.1264782, "lon": 4.2713242 },
    { "lat": 51.1264914, "lon": 4.2713840 },
    { "lat": 51.1265175, "lon": 4.2715031 },
    { "lat": 51.1264645, "lon": 4.2715401 },
    { "lat": 51.1264569, "lon": 4.2715141 },
    { "lat": 51.1264655, "lon": 4.2715087 },
    { "lat": 51.1264302, "lon": 4.2713549 },
    { "lat": 51.1264218, "lon": 4.2713176 },
    { "lat": 51.1264058, "lon": 4.2713258 },
    { "lat": 51.1262864, "lon": 4.2707937 },
    { "lat": 51.1263537, "lon": 4.2707575 }
  ],
  "tags": {
    "addr:housenumber": "78",
    "addr:street": "Gelaagstraat",
    "amenity": "kindergarten",
    "building": "house",
    "name": "Sint Henricus",
    "source:geometry:date": "2008-09-10",
    "source:geometry:ref": "Gbg/826848"
  }
},
{
  "type": "way",
  "id": 149727182,
  "bounds": {
    "minlat": 51.0983904,
    "minlon": 4.3736190,
    "maxlat": 51.0990733,
    "maxlon": 4.3744525
  },
  "geometry": [
    { "lat": 51.0985626, "lon": 4.3736190 },
    { "lat": 51.0983904, "lon": 4.3738432 },
    { "lat": 51.0987033, "lon": 4.3744525 },
    { "lat": 51.0988668, "lon": 4.3742274 },
    { "lat": 51.0988744, "lon": 4.3742410 },
    { "lat": 51.0989007, "lon": 4.3742085 },
    { "lat": 51.0989077, "lon": 4.3742214 },
    { "lat": 51.0990584, "lon": 4.3740238 },
    { "lat": 51.0990595, "lon": 4.3740258 },
    { "lat": 51.0990733, "lon": 4.3740068 },
    { "lat": 51.0989928, "lon": 4.3738458 },
    { "lat": 51.0989825, "lon": 4.3738278 },
    { "lat": 51.0988274, "lon": 4.3740297 },
    { "lat": 51.0987732, "lon": 4.3739242 },
    { "lat": 51.0987409, "lon": 4.3739663 },
    { "lat": 51.0985626, "lon": 4.3736190 }
  ],
  "tags": {
    "addr:housenumber": "227",
    "amenity": "school",
    "name": "PTS Boom 3de graad"
  }
},
{
  "type": "way",
  "id": 157126343,
  "bounds": {
    "minlat": 51.0637228,
    "minlon": 4.3558989,
    "maxlat": 51.0658505,
    "maxlon": 4.3584345
  },
  "geometry": [
    { "lat": 51.0654326, "lon": 4.3562276 },
    { "lat": 51.0657347, "lon": 4.3565538 },
    { "lat": 51.0658505, "lon": 4.3566788 },
    { "lat": 51.0658112, "lon": 4.3567810 },
    { "lat": 51.0655388, "lon": 4.3574477 },
    { "lat": 51.0655186, "lon": 4.3574976 },
    { "lat": 51.0655157, "lon": 4.3574947 },
    { "lat": 51.0654529, "lon": 4.3574326 },
    { "lat": 51.0654044, "lon": 4.3573843 },
    { "lat": 51.0653297, "lon": 4.3573085 },
    { "lat": 51.0650997, "lon": 4.3572037 },
    { "lat": 51.0650681, "lon": 4.3573741 },
    { "lat": 51.0650659, "lon": 4.3574388 },
    { "lat": 51.0650131, "lon": 4.3577100 },
    { "lat": 51.0649528, "lon": 4.3576793 },
    { "lat": 51.0648435, "lon": 4.3579870 },
    { "lat": 51.0648424, "lon": 4.3579901 },
    { "lat": 51.0647079, "lon": 4.3582025 },
    { "lat": 51.0647458, "lon": 4.3583440 },
    { "lat": 51.0647405, "lon": 4.3583383 },
    { "lat": 51.0645759, "lon": 4.3584345 },
    { "lat": 51.0643854, "lon": 4.3580670 },
    { "lat": 51.0642388, "lon": 4.3582628 },
    { "lat": 51.0642170, "lon": 4.3582179 },
    { "lat": 51.0642091, "lon": 4.3582372 },
    { "lat": 51.0641180, "lon": 4.3580450 },
    { "lat": 51.0640574, "lon": 4.3581195 },
    { "lat": 51.0639127, "lon": 4.3581812 },
    { "lat": 51.0637687, "lon": 4.3578729 },
    { "lat": 51.0637228, "lon": 4.3577556 },
    { "lat": 51.0641258, "lon": 4.3565998 },
    { "lat": 51.0643500, "lon": 4.3558989 },
    { "lat": 51.0645957, "lon": 4.3560984 },
    { "lat": 51.0646011, "lon": 4.3560786 },
    { "lat": 51.0646563, "lon": 4.3561186 },
    { "lat": 51.0646707, "lon": 4.3560580 },
    { "lat": 51.0647061, "lon": 4.3560716 },
    { "lat": 51.0650406, "lon": 4.3563516 },
    { "lat": 51.0650876, "lon": 4.3563950 },
    { "lat": 51.0652272, "lon": 4.3565381 },
    { "lat": 51.0652939, "lon": 4.3563768 },
    { "lat": 51.0653474, "lon": 4.3564353 },
    { "lat": 51.0654326, "lon": 4.3562276 }
  ],
  "tags": {
    "addr:housenumber": "46",
    "addr:street": "Eduard Anseelestraat",
    "amenity": "school",
    "education": "school",
    "name": "GO! atheneum Willebroek - Campus Vaartland"
  }
},
{
  "type": "way",
  "id": 162834441,
  "bounds": {
    "minlat": 51.0300086,
    "minlon": 4.4583081,
    "maxlat": 51.0312370,
    "maxlon": 4.4614350
  },
  "geometry": [
    { "lat": 51.0307577, "lon": 4.4583081 },
    { "lat": 51.0300697, "lon": 4.4593631 },
    { "lat": 51.0300086, "lon": 4.4594796 },
    { "lat": 51.0304632, "lon": 4.4602383 },
    { "lat": 51.0303632, "lon": 4.4603823 },
    { "lat": 51.0308253, "lon": 4.4614350 },
    { "lat": 51.0310785, "lon": 4.4611122 },
    { "lat": 51.0306105, "lon": 4.4601730 },
    { "lat": 51.0312370, "lon": 4.4592624 },
    { "lat": 51.0307577, "lon": 4.4583081 }
  ],
  "tags": {
    "addr:city": "Mechelen",
    "addr:housenumber": "259",
    "addr:postcode": "2800",
    "addr:street": "Battelsesteenweg",
    "amenity": "school",
    "name": "GO! BS De Spreeuwen"
  }
},
{
  "type": "way",
  "id": 167178658,
  "bounds": {
    "minlat": 51.0325700,
    "minlon": 4.4166732,
    "maxlat": 51.0330662,
    "maxlon": 4.4175338
  },
  "geometry": [
    { "lat": 51.0327704, "lon": 4.4166732 },
    { "lat": 51.0327544, "lon": 4.4166836 },
    { "lat": 51.0326579, "lon": 4.4167486 },
    { "lat": 51.0325700, "lon": 4.4168076 },
    { "lat": 51.0326273, "lon": 4.4170396 },
    { "lat": 51.0328740, "lon": 4.4175338 },
    { "lat": 51.0330662, "lon": 4.4172975 },
    { "lat": 51.0329743, "lon": 4.4170900 },
    { "lat": 51.0329560, "lon": 4.4170548 },
    { "lat": 51.0327704, "lon": 4.4166732 }
  ],
  "tags": {
    "addr:city": "Leest",
    "addr:housenumber": "3",
    "addr:postcode": "2811",
    "addr:street": "Ten Moortele",
    "amenity": "school",
    "name": "GO! BS De Spiegel"
  }
},
{
  "type": "way",
  "id": 169590558,
  "bounds": {
    "minlat": 51.0787693,
    "minlon": 4.4266078,
    "maxlat": 51.0795124,
    "maxlon": 4.4276201
  },
  "geometry": [
    { "lat": 51.0790800, "lon": 4.4266078 },
    { "lat": 51.0789853, "lon": 4.4267280 },
    { "lat": 51.0787693, "lon": 4.4269558 },
    { "lat": 51.0788368, "lon": 4.4270873 },
    { "lat": 51.0788470, "lon": 4.4270740 },
    { "lat": 51.0788944, "lon": 4.4271372 },
    { "lat": 51.0791347, "lon": 4.4274575 },
    { "lat": 51.0791996, "lon": 4.4275441 },
    { "lat": 51.0792142, "lon": 4.4275635 },
    { "lat": 51.0792633, "lon": 4.4276201 },
    { "lat": 51.0794182, "lon": 4.4273134 },
    { "lat": 51.0794469, "lon": 4.4272590 },
    { "lat": 51.0795076, "lon": 4.4271325 },
    { "lat": 51.0795124, "lon": 4.4271269 },
    { "lat": 51.0791821, "lon": 4.4267419 },
    { "lat": 51.0790800, "lon": 4.4266078 }
  ],
  "tags": {
    "addr:housenumber": "4",
    "addr:street": "Doelhaagstraat",
    "amenity": "school",
    "name": "Gemeentelijke Basisschool"
  }
},
{
  "type": "way",
  "id": 169590565,
  "bounds": {
    "minlat": 51.0781018,
    "minlon": 4.4273734,
    "maxlat": 51.0786931,
    "maxlon": 4.4282581
  },
  "geometry": [
    { "lat": 51.0784293, "lon": 4.4273734 },
    { "lat": 51.0781018, "lon": 4.4277555 },
    { "lat": 51.0781468, "lon": 4.4278923 },
    { "lat": 51.0781714, "lon": 4.4279670 },
    { "lat": 51.0782480, "lon": 4.4279006 },
    { "lat": 51.0782748, "lon": 4.4279787 },
    { "lat": 51.0783497, "lon": 4.4282105 },
    { "lat": 51.0783952, "lon": 4.4281724 },
    { "lat": 51.0784298, "lon": 4.4282581 },
    { "lat": 51.0786931, "lon": 4.4280284 },
    { "lat": 51.0785509, "lon": 4.4276177 },
    { "lat": 51.0784293, "lon": 4.4273734 }
  ],
  "tags": {
    "amenity": "school",
    "name": "Sleutelhof"
  }
},
{
  "type": "way",
  "id": 175211479,
  "bounds": {
    "minlat": 51.1086253,
    "minlon": 4.3240869,
    "maxlat": 51.1092417,
    "maxlon": 4.3249934
  },
  "geometry": [
    { "lat": 51.1091497, "lon": 4.3240869 },
    { "lat": 51.1086253, "lon": 4.3242167 },
    { "lat": 51.1087109, "lon": 4.3249934 },
    { "lat": 51.1087713, "lon": 4.3249588 },
    { "lat": 51.1088361, "lon": 4.3248756 },
    { "lat": 51.1088488, "lon": 4.3248917 },
    { "lat": 51.1089111, "lon": 4.3248770 },
    { "lat": 51.1089515, "lon": 4.3249373 },
    { "lat": 51.1092417, "lon": 4.3248569 },
    { "lat": 51.1091497, "lon": 4.3240869 }
  ],
  "tags": {
    "addr:housenumber": "50",
    "addr:postcode": "2845",
    "addr:street": "Schuttershofstraat",
    "amenity": "school",
    "email": "info@bsdeparel.be",
    "name": "GO! Basisschool De Parel",
    "phone": "+32 3 888 25 22",
    "school": "kindergarten;primary",
    "website": "https://bsdeparel.be/"
  }
},
{
  "type": "way",
  "id": 186131064,
  "bounds": {
    "minlat": 51.1582360,
    "minlon": 4.4436040,
    "maxlat": 51.1587604,
    "maxlon": 4.4443724
  },
  "geometry": [
    { "lat": 51.1585243, "lon": 4.4436040 },
    { "lat": 51.1586052, "lon": 4.4438736 },
    { "lat": 51.1587604, "lon": 4.4443696 },
    { "lat": 51.1584093, "lon": 4.4443724 },
    { "lat": 51.1583972, "lon": 4.4443286 },
    { "lat": 51.1583080, "lon": 4.4440380 },
    { "lat": 51.1582877, "lon": 4.4439766 },
    { "lat": 51.1582360, "lon": 4.4438080 },
    { "lat": 51.1585243, "lon": 4.4436040 }
  ],
  "tags": {
    "addr:housenumber": "21",
    "addr:postcode": "2650",
    "addr:street": "Patronaatstraat",
    "amenity": "school",
    "name": "De Link Lagere School"
  }
},
{
  "type": "way",
  "id": 186131065,
  "bounds": {
    "minlat": 51.1575653,
    "minlon": 4.4418802,
    "maxlat": 51.1586265,
    "maxlon": 4.4436424
  },
  "geometry": [
    { "lat": 51.1586265, "lon": 4.4430389 },
    { "lat": 51.1580394, "lon": 4.4418802 },
    { "lat": 51.1575653, "lon": 4.4424660 },
    { "lat": 51.1581353, "lon": 4.4436290 },
    { "lat": 51.1582197, "lon": 4.4435844 },
    { "lat": 51.1582614, "lon": 4.4436424 },
    { "lat": 51.1585138, "lon": 4.4433446 },
    { "lat": 51.1584885, "lon": 4.4432159 },
    { "lat": 51.1586265, "lon": 4.4430389 }
  ],
  "tags": {
    "addr:housenumber": "28",
    "addr:postcode": "2650",
    "addr:street": "Patronaatstraat",
    "amenity": "school",
    "name": "De Link Kleuterschool"
  }
},
{
  "type": "way",
  "id": 186902926,
  "bounds": {
    "minlat": 51.1102052,
    "minlon": 4.3378132,
    "maxlat": 51.1104544,
    "maxlon": 4.3388056
  },
  "geometry": [
    { "lat": 51.1102624, "lon": 4.3388056 },
    { "lat": 51.1104544, "lon": 4.3387251 },
    { "lat": 51.1103837, "lon": 4.3378132 },
    { "lat": 51.1102793, "lon": 4.3378266 },
    { "lat": 51.1103399, "lon": 4.3386312 },
    { "lat": 51.1102843, "lon": 4.3386393 },
    { "lat": 51.1102776, "lon": 4.3385454 },
    { "lat": 51.1102540, "lon": 4.3385454 },
    { "lat": 51.1102456, "lon": 4.3384623 },
    { "lat": 51.1102052, "lon": 4.3384703 },
    { "lat": 51.1102624, "lon": 4.3388056 }
  ],
  "tags": {
    "addr:housenumber": "26",
    "addr:postcode": "2845",
    "addr:street": "Franklin D. Rooseveltstraat",
    "amenity": "school",
    "name": "Gemeentelijke Kleuterschool",
    "website": "http://www.gbsniel.be/"
  }
},
{
  "type": "way",
  "id": 188458132,
  "bounds": {
    "minlat": 51.0958086,
    "minlon": 4.4948142,
    "maxlat": 51.0969671,
    "maxlon": 4.4983167
  },
  "geometry": [
    { "lat": 51.0961948, "lon": 4.4948142 },
    { "lat": 51.0958086, "lon": 4.4963718 },
    { "lat": 51.0960638, "lon": 4.4965560 },
    { "lat": 51.0959305, "lon": 4.4973672 },
    { "lat": 51.0959736, "lon": 4.4974516 },
    { "lat": 51.0961070, "lon": 4.4975686 },
    { "lat": 51.0960384, "lon": 4.4978325 },
    { "lat": 51.0960949, "lon": 4.4978674 },
    { "lat": 51.0960781, "lon": 4.4979383 },
    { "lat": 51.0960505, "lon": 4.4980477 },
    { "lat": 51.0962901, "lon": 4.4981948 },
    { "lat": 51.0964891, "lon": 4.4983167 },
    { "lat": 51.0968174, "lon": 4.4968106 },
    { "lat": 51.0969671, "lon": 4.4966616 },
    { "lat": 51.0961948, "lon": 4.4948142 }
  ],
  "tags": {
    "addr:housenumber": "52",
    "addr:street": "Rooienberg",
    "amenity": "school",
    "name": "GO! Basisschool Kiliaan",
    "phone": "+32 15 31 17 52",
    "website": "https://www.kiliaan.be/"
  }
},
{
  "type": "way",
  "id": 188658682,
  "bounds": {
    "minlat": 51.1115587,
    "minlon": 4.3293667,
    "maxlat": 51.1125988,
    "maxlon": 4.3303322
  },
  "geometry": [
    { "lat": 51.1116609, "lon": 4.3303322 },
    { "lat": 51.1125631, "lon": 4.3298784 },
    { "lat": 51.1125988, "lon": 4.3298548 },
    { "lat": 51.1125073, "lon": 4.3293974 },
    { "lat": 51.1125011, "lon": 4.3293667 },
    { "lat": 51.1124591, "lon": 4.3293866 },
    { "lat": 51.1116365, "lon": 4.3297770 },
    { "lat": 51.1115587, "lon": 4.3298202 },
    { "lat": 51.1116609, "lon": 4.3303322 }
  ],
  "tags": {
    "addr:housenumber": "1",
    "addr:postcode": "2845",
    "addr:street": "Veldstraat",
    "amenity": "school",
    "name": "Gemeentelijke Basisschool Niel - De Springplank"
  }
},
{
  "type": "way",
  "id": 192313768,
  "bounds": {
    "minlat": 51.1517813,
    "minlon": 4.4435375,
    "maxlat": 51.1535480,
    "maxlon": 4.4464247
  },
  "geometry": [
    { "lat": 51.1517962, "lon": 4.4436814 },
    { "lat": 51.1517813, "lon": 4.4439192 },
    { "lat": 51.1517903, "lon": 4.4443369 },
    { "lat": 51.1518345, "lon": 4.4450263 },
    { "lat": 51.1520564, "lon": 4.4463636 },
    { "lat": 51.1520781, "lon": 4.4464247 },
    { "lat": 51.1526549, "lon": 4.4463522 },
    { "lat": 51.1525370, "lon": 4.4450767 },
    { "lat": 51.1532185, "lon": 4.4449623 },
    { "lat": 51.1535190, "lon": 4.4449119 },
    { "lat": 51.1535480, "lon": 4.4435375 },
    { "lat": 51.1517962, "lon": 4.4436814 }
  ],
  "tags": {
    "amenity": "school",
    "name": "Koninklijk Technisch Atheneum Da Vinci",
    "wheelchair": "limited"
  }
},
{
  "type": "way",
  "id": 192532923,
  "bounds": {
    "minlat": 51.1137382,
    "minlon": 4.3730004,
    "maxlat": 51.1140598,
    "maxlon": 4.3734717
  },
  "geometry": [
    { "lat": 51.1140598, "lon": 4.3730828 },
    { "lat": 51.1139187, "lon": 4.3734018 },
    { "lat": 51.1138607, "lon": 4.3733385 },
    { "lat": 51.1138423, "lon": 4.3733795 },
    { "lat": 51.1138635, "lon": 4.3734030 },
    { "lat": 51.1138335, "lon": 4.3734717 },
    { "lat": 51.1137382, "lon": 4.3733690 },
    { "lat": 51.1138204, "lon": 4.3731805 },
    { "lat": 51.1138155, "lon": 4.3731745 },
    { "lat": 51.1138532, "lon": 4.3730909 },
    { "lat": 51.1138960, "lon": 4.3731385 },
    { "lat": 51.1139127, "lon": 4.3731087 },
    { "lat": 51.1139322, "lon": 4.3730990 },
    { "lat": 51.1139539, "lon": 4.3730997 },
    { "lat": 51.1139733, "lon": 4.3731126 },
    { "lat": 51.1139981, "lon": 4.3730529 },
    { "lat": 51.1139925, "lon": 4.3730456 },
    { "lat": 51.1139908, "lon": 4.3730223 },
    { "lat": 51.1140008, "lon": 4.3730026 },
    { "lat": 51.1140159, "lon": 4.3730004 },
    { "lat": 51.1140294, "lon": 4.3730137 },
    { "lat": 51.1140314, "lon": 4.3730403 },
    { "lat": 51.1140289, "lon": 4.3730481 },
    { "lat": 51.1140598, "lon": 4.3730828 }
  ],
  "tags": {
    "amenity": "kindergarten",
    "building": "school",
    "name": "Sint Jozefschool",
    "source": "bing2012"
  }
},
{
  "type": "way",
  "id": 194819968,
  "bounds": {
    "minlat": 51.1365259,
    "minlon": 4.3507572,
    "maxlat": 51.1377596,
    "maxlon": 4.3530814
  },
  "geometry": [
    { "lat": 51.1376404, "lon": 4.3512175 },
    { "lat": 51.1374340, "lon": 4.3514832 },
    { "lat": 51.1371699, "lon": 4.3508397 },
    { "lat": 51.1369277, "lon": 4.3507572 },
    { "lat": 51.1367632, "lon": 4.3520461 },
    { "lat": 51.1365486, "lon": 4.3519734 },
    { "lat": 51.1365378, "lon": 4.3520539 },
    { "lat": 51.1365259, "lon": 4.3521370 },
    { "lat": 51.1366154, "lon": 4.3521652 },
    { "lat": 51.1367608, "lon": 4.3529585 },
    { "lat": 51.1368369, "lon": 4.3529267 },
    { "lat": 51.1369257, "lon": 4.3530652 },
    { "lat": 51.1372090, "lon": 4.3526207 },
    { "lat": 51.1374873, "lon": 4.3530814 },
    { "lat": 51.1374949, "lon": 4.3530701 },
    { "lat": 51.1375357, "lon": 4.3530098 },
    { "lat": 51.1374738, "lon": 4.3528878 },
    { "lat": 51.1374509, "lon": 4.3527991 },
    { "lat": 51.1373187, "lon": 4.3525464 },
    { "lat": 51.1375218, "lon": 4.3522504 },
    { "lat": 51.1373839, "lon": 4.3518966 },
    { "lat": 51.1377596, "lon": 4.3515066 },
    { "lat": 51.1376404, "lon": 4.3512175 }
  ],
  "tags": {
    "addr:city": "Hemiksem",
    "addr:housenumber": "154",
    "addr:postcode": "2620",
    "addr:street": "Jan Sanderslaan",
    "amenity": "school",
    "email": "directie@hetklaverbos.be",
    "name": "Gemeentelijke Basisschool Het Klaverbos",
    "phone": "+32 3 887 43 71",
    "school": "kindergarten;primary",
    "website": "https://www.hetklaverbos.be"
  }
},
{
  "type": "way",
  "id": 195921540,
  "bounds": {
    "minlat": 51.1067288,
    "minlon": 4.3280732,
    "maxlat": 51.1069078,
    "maxlon": 4.3283155
  },
  "geometry": [
    { "lat": 51.1068065, "lon": 4.3283155 },
    { "lat": 51.1067288, "lon": 4.3282677 },
    { "lat": 51.1067781, "lon": 4.3280732 },
    { "lat": 51.1069078, "lon": 4.3281437 },
    { "lat": 51.1068795, "lon": 4.3282649 },
    { "lat": 51.1068253, "lon": 4.3282364 },
    { "lat": 51.1068065, "lon": 4.3283155 }
  ],
  "tags": {
    "addr:city": "Niel",
    "addr:housenumber": "23",
    "addr:postcode": "2845",
    "addr:street": "Émille Vanderveldelaan",
    "amenity": "school",
    "building": "house",
    "name": "Gemeentelijke Academie Voor Muziek & Woord",
    "source": "GRB",
    "source:geometry": "GRB",
    "source:geometry:date": "2008-09-17",
    "source:geometry:oidn": "1015203"
  }
},
{
  "type": "way",
  "id": 202882146,
  "bounds": {
    "minlat": 51.1534764,
    "minlon": 4.4272405,
    "maxlat": 51.1540951,
    "maxlon": 4.4286032
  },
  "geometry": [
    { "lat": 51.1540951, "lon": 4.4283636 },
    { "lat": 51.1538086, "lon": 4.4272405 },
    { "lat": 51.1534764, "lon": 4.4273135 },
    { "lat": 51.1538039, "lon": 4.4286032 },
    { "lat": 51.1539436, "lon": 4.4285115 },
    { "lat": 51.1539307, "lon": 4.4284684 },
    { "lat": 51.1540951, "lon": 4.4283636 }
  ],
  "tags": {
    "amenity": "school",
    "name": "Onze-Lieve-Vrouw van Lourdescollege"
  }
},
{
  "type": "way",
  "id": 205472377,
  "bounds": {
    "minlat": 51.1327008,
    "minlon": 4.3845867,
    "maxlat": 51.1332020,
    "maxlon": 4.3854986
  },
  "geometry": [
    { "lat": 51.1329369, "lon": 4.3845867 },
    { "lat": 51.1327008, "lon": 4.3852325 },
    { "lat": 51.1328338, "lon": 4.3854986 },
    { "lat": 51.1328936, "lon": 4.3854241 },
    { "lat": 51.1332020, "lon": 4.3850439 },
    { "lat": 51.1330332, "lon": 4.3846749 },
    { "lat": 51.1329369, "lon": 4.3845867 }
  ],
  "tags": {
    "addr:housenumber": "16",
    "addr:street": "Carillolei",
    "amenity": "kindergarten",
    "email": "info@dewonderpluim.be",
    "name": "Vrije Kleuterschool De Wonderpluim",
    "phone": "+32 3 887 58 04",
    "preschool": "yes",
    "website": "https://dewonderpluim.be/"
  }
},
{
  "type": "way",
  "id": 206252939,
  "bounds": {
    "minlat": 51.1331849,
    "minlon": 4.3857289,
    "maxlat": 51.1337536,
    "maxlon": 4.3868731
  },
  "geometry": [
    { "lat": 51.1335221, "lon": 4.3857289 },
    { "lat": 51.1331849, "lon": 4.3862377 },
    { "lat": 51.1335292, "lon": 4.3868731 },
    { "lat": 51.1336283, "lon": 4.3867264 },
    { "lat": 51.1336158, "lon": 4.3866995 },
    { "lat": 51.1337536, "lon": 4.3865051 },
    { "lat": 51.1336726, "lon": 4.3863145 },
    { "lat": 51.1337328, "lon": 4.3862526 },
    { "lat": 51.1335221, "lon": 4.3857289 }
  ],
  "tags": {
    "addr:housenumber": "2",
    "addr:street": "Carillolei",
    "amenity": "school",
    "email": "secretariaat@cade.be",
    "name": "Gemeentelijke Basisschool Cade",
    "phone": "+32 3 887 49 88",
    "website": "https://cade.be/",
    "wheelchair": "limited"
  }
},
{
  "type": "way",
  "id": 217994277,
  "bounds": {
    "minlat": 51.0691077,
    "minlon": 4.4581200,
    "maxlat": 51.0699095,
    "maxlon": 4.4592588
  },
  "geometry": [
    { "lat": 51.0695612, "lon": 4.4581200 },
    { "lat": 51.0691077, "lon": 4.4583215 },
    { "lat": 51.0692391, "lon": 4.4591257 },
    { "lat": 51.0694419, "lon": 4.4592588 },
    { "lat": 51.0696328, "lon": 4.4591525 },
    { "lat": 51.0699095, "lon": 4.4590648 },
    { "lat": 51.0698443, "lon": 4.4586961 },
    { "lat": 51.0696796, "lon": 4.4587769 },
    { "lat": 51.0695612, "lon": 4.4581200 }
  ],
  "tags": {
    "addr:city": "Walem",
    "addr:housenumber": "84",
    "addr:postcode": "2800",
    "addr:street": "Pastorijstraat",
    "amenity": "school",
    "name": "GO! BS De Zonnebergen"
  }
},
{
  "type": "way",
  "id": 222193048,
  "bounds": {
    "minlat": 51.0496922,
    "minlon": 4.4733557,
    "maxlat": 51.0533127,
    "maxlon": 4.4795662
  },
  "geometry": [
    { "lat": 51.0522222, "lon": 4.4733557 },